[
  {
    "name": "SAI BABA NAGAR KAPRA DAMMAIGUDA ROAD (TOILETS)",
    "lat": 17.500789,
    "lng": 78.586245
  },
  {
    "name": "SAINIKPURI (E - 61), NEAR HUDA PARK (TOILETS)",
    "lat": 17.485797,
    "lng": 78.552431
  },
  {
    "name": "BHARAT PETROLEUM ,SAINIKPURI (E - 102 &103),SAINIKPURI MANI ROAD ,BESIDE CANARA BANK (TOILETS)",
    "lat": 17.483028,
    "lng": 78.55188
  },
  {
    "name": "KAPRA, GANDHI NAGAR, COMMUNITY HALL (COMMUNITY HALLS)",
    "lat": 17.4829138,
    "lng": 78.5634731
  },
  {
    "name": "KAPRA,GANDHI NAGAR,COMMUNITY HALL (COMMUNITY HALLS)",
    "lat": 17.4817474,
    "lng": 78.5625964
  },
  {
    "name": "KAPRA, ST COLONY, COMMUNITY HALL (COMMUNITY HALLS)",
    "lat": 17.4865491,
    "lng": 78.5651804
  },
  {
    "name": "KAPRA, YELLAREDDYGUDA COMMUNITY HALL (COMMUNITY HALLS)",
    "lat": 17.4928047,
    "lng": 78.565662
  },
  {
    "name": "KAPRA,VAMPUGUDA COMMUNITY HALL ANGANWADI CENTER (COMMUNITY HALLS)",
    "lat": 17.4979817,
    "lng": 78.5683254
  },
  {
    "name": "KAPRA, VAMPUGUDA COMMUNITY HALL (COMMUNITY HALLS)",
    "lat": 17.4980354,
    "lng": 78.5680317
  },
  {
    "name": "KAPRA, NEW INDIRA NAGAR, COMMUNITY HALL (COMMUNITY HALLS)",
    "lat": 17.5033175,
    "lng": 78.5809816
  },
  {
    "name": "KAPRA, SAI BABA NAGAR, COMMUNITY HALL (COMMUNITY HALLS)",
    "lat": 17.5028554,
    "lng": 78.5840829
  },
  {
    "name": "KAPRA, SAI RAM NAGAR,COMMUNITY HALL (COMMUNITY HALLS)",
    "lat": 17.4989232,
    "lng": 78.5819323
  },
  {
    "name": "COMMUNITY HALL , KANDIGUDA (COMMUNITY HALLS)",
    "lat": 17.4962654,
    "lng": 78.5432055
  },
  {
    "name": "KAPRA,VAL VAR NAGAR, COMMUNITY HALL (COMMUNITY HALLS)",
    "lat": 17.494223,
    "lng": 78.5393563
  },
  {
    "name": "OPEN SPACE BANK COLONY (OPEN SPACES)",
    "lat": 17.4909553,
    "lng": 78.566683
  },
  {
    "name": "OPENSPACE, NAYAKRANT (OPEN SPACES)",
    "lat": 17.4843878,
    "lng": 78.5576782
  },
  {
    "name": "WATER TANK, RAJAKA SANGAM COLONY (OPEN SPACES)",
    "lat": 17.4898726,
    "lng": 78.5666947
  },
  {
    "name": "WATER TANK, MYTRI VILLA (OPEN SPACES)",
    "lat": 17.5026804,
    "lng": 78.5568071
  },
  {
    "name": "WATER TANK SIVA SAI ENCLAVE (OPEN SPACES)",
    "lat": 17.5001516,
    "lng": 78.5594869
  },
  {
    "name": "WATER PUMP HOUSE, SAINIKPURI (OPEN SPACES)",
    "lat": 17.4836453,
    "lng": 78.5505322
  },
  {
    "name": "PUMP HOUSE,O.U.T COLONY (OPEN SPACES)",
    "lat": 17.4904558,
    "lng": 78.543281
  },
  {
    "name": "OVER HEAD TANK, O.U.T COLONY (OPEN SPACES)",
    "lat": 17.4914763,
    "lng": 78.544267
  },
  {
    "name": "OHT,LAKE VIEW BESIDE (OPEN SPACES)",
    "lat": 17.4946606,
    "lng": 78.5486803
  },
  {
    "name": "TEMPLE, SHIVPURI (OPEN SPACES)",
    "lat": 17.4845092,
    "lng": 78.5596753
  },
  {
    "name": "TEMPLE, SAIRAMANAGAR (OPEN SPACES)",
    "lat": 17.4998859,
    "lng": 78.5823853
  },
  {
    "name": "TEMPLE, SAIRAMNAGAR (OPEN SPACES)",
    "lat": 17.4996213,
    "lng": 78.5816974
  },
  {
    "name": "TEMPLE, ESHWARAPURI (OPEN SPACES)",
    "lat": 17.4897057,
    "lng": 78.5520577
  },
  {
    "name": "KANAKA DURGA TEMPLE, (OPEN SPACES)",
    "lat": 17.494571,
    "lng": 78.5396424
  },
  {
    "name": "VINAYAKA TEMPLE,HAST (OPEN SPACES)",
    "lat": 17.4920894,
    "lng": 78.5397608
  },
  {
    "name": "SCHOOL , NEW INDIRA (OPEN SPACES)",
    "lat": 17.5035563,
    "lng": 78.5811327
  },
  {
    "name": "DHOBI GHAT, OPEN SPACE BANK COLONY (OPEN SPACES)",
    "lat": 17.4920899,
    "lng": 78.5681465
  },
  {
    "name": "DARGA,SAIRAMNAGAR (OPEN SPACES)",
    "lat": 17.5014316,
    "lng": 78.5846277
  },
  {
    "name": "CHURCH, WATER TANK,SAIRAMNAGAR (OPEN SPACES)",
    "lat": 17.5007444,
    "lng": 78.5834324
  },
  {
    "name": "SEPTIC TANK, CHANDRAPURI (OPEN SPACES)",
    "lat": 17.4879629,
    "lng": 78.5579076
  },
  {
    "name": "OPENSPACE, RAMDASS COLONY (OPEN SPACES)",
    "lat": 17.48824,
    "lng": 78.5598253
  },
  {
    "name": "OPEN SPACE SRI RAM NAGAR (OPEN SPACES)",
    "lat": 17.4838985,
    "lng": 78.5642085
  },
  {
    "name": "SEPTIC TANK, GREEN PARK ENCLAVE (OPEN SPACES)",
    "lat": 17.4906823,
    "lng": 78.5603992
  },
  {
    "name": "OPEN SPACE, GREEN PARK ENCLAVE (OPEN SPACES)",
    "lat": 17.4918399,
    "lng": 78.557397
  },
  {
    "name": "PARK, PRATHANAPURI COLONY (OPEN SPACES)",
    "lat": 17.4901186,
    "lng": 78.5575861
  },
  {
    "name": "OPENSPACE, SAROJINI COLONY (OPEN SPACES)",
    "lat": 17.4809525,
    "lng": 78.5610301
  },
  {
    "name": "SEPTIC TANK,  DHABA GARDENS (OPEN SPACES)",
    "lat": 17.4893047,
    "lng": 78.5636202
  },
  {
    "name": "OPEN SPACE, DHABA GARDENS (OPEN SPACES)",
    "lat": 17.4897316,
    "lng": 78.564248
  },
  {
    "name": "OPEN SPACE DHABA GARDENS (OPEN SPACES)",
    "lat": 17.4903107,
    "lng": 78.5637911
  },
  {
    "name": "OPEN SPACE, SHALIVAHANA NAGAR (OPEN SPACES)",
    "lat": 17.4942073,
    "lng": 78.563489
  },
  {
    "name": "OPEN SPACE SAINIKPURI (OPEN SPACES)",
    "lat": 17.4896814,
    "lng": 78.5409924
  },
  {
    "name": "OPENSPACE, SHALIVAHANA NAGAR (OPEN SPACES)",
    "lat": 17.4972126,
    "lng": 78.563477
  },
  {
    "name": "OPEN SPACE, SAPTAGIRI (OPEN SPACES)",
    "lat": 17.4997023,
    "lng": 78.5631748
  },
  {
    "name": "OPENSPACE, SAPTAGIRI (OPEN SPACES)",
    "lat": 17.4985024,
    "lng": 78.5657918
  },
  {
    "name": "OPENSAPCE, IOB COLONY (OPEN SPACES)",
    "lat": 17.5021163,
    "lng": 78.5641634
  },
  {
    "name": "OPEN SPACE,IOB COLONY (OPEN SPACES)",
    "lat": 17.5017913,
    "lng": 78.5659252
  },
  {
    "name": "OPEN SPACE, IOB COLONY (OPEN SPACES)",
    "lat": 17.5022261,
    "lng": 78.5642124
  },
  {
    "name": "OPENSPACE,IOB COLONY (OPEN SPACES)",
    "lat": 17.5032541,
    "lng": 78.5646935
  },
  {
    "name": "OPEN SPACE, IOB COLONY (OPEN SPACES)",
    "lat": 17.5037421,
    "lng": 78.5644908
  },
  {
    "name": "OPENSPACE,GOPALREDDY (OPEN SPACES)",
    "lat": 17.5029277,
    "lng": 78.5668241
  },
  {
    "name": "OPEN SPACE, GOPAL REDDY NAGAR (OPEN SPACES)",
    "lat": 17.5025445,
    "lng": 78.5674916
  },
  {
    "name": "OPENSPACE,GOPALREDDY (OPEN SPACES)",
    "lat": 17.4989801,
    "lng": 78.5662686
  },
  {
    "name": "OPEN SPACE VAMPUGUDA HOUSE (OPEN SPACES)",
    "lat": 17.4990624,
    "lng": 78.5683834
  },
  {
    "name": "OPEN SPACE, SHANTI VILLE (OPEN SPACES)",
    "lat": 17.4997612,
    "lng": 78.5718118
  },
  {
    "name": "OPEN SPACE, SAPTAGIRI ENCLAVE (OPEN SPACES)",
    "lat": 17.4955493,
    "lng": 78.5654809
  },
  {
    "name": "OPEN SPACE, SAPTAGIRI ENCLAVE (OPEN SPACES)",
    "lat": 17.495945,
    "lng": 78.5656103
  },
  {
    "name": "OPEN SPACE , MYTRI VILLA (OPEN SPACES)",
    "lat": 17.5025788,
    "lng": 78.5558766
  },
  {
    "name": "OPEN SPACE, SIVA SAI ENCLAVE (OPEN SPACES)",
    "lat": 17.5016603,
    "lng": 78.5599136
  },
  {
    "name": "OPEN SPACE, SIVA SAI ENCLAVE (OPEN SPACES)",
    "lat": 17.5004852,
    "lng": 78.5614347
  },
  {
    "name": "OPEN SPACE, SIVA SAI ENCLAVE (OPEN SPACES)",
    "lat": 17.4993135,
    "lng": 78.5605956
  },
  {
    "name": "OPENSPACE, C.S. WELFARE ASSOCATION (OPEN SPACES)",
    "lat": 17.4938176,
    "lng": 78.5716046
  },
  {
    "name": "GHMC OPEN SPACE TULSI NAGAR (OPEN SPACES)",
    "lat": 17.5063537,
    "lng": 78.5571022
  },
  {
    "name": "OPEN SPACE TULSI GARDEN (OPEN SPACES)",
    "lat": 17.5071022,
    "lng": 78.5575461
  },
  {
    "name": "OPEN SPACE UMA RESIDENCY (OPEN SPACES)",
    "lat": 17.4878762,
    "lng": 78.553922
  },
  {
    "name": "OPEN SPACE BHASKAR RAO NAGAR COLONY (OPEN SPACES)",
    "lat": 17.4897232,
    "lng": 78.5493808
  },
  {
    "name": "AFOCHS SAINIKPURI (OPEN SPACES)",
    "lat": 17.4867004,
    "lng": 78.5486272
  },
  {
    "name": "OPEN SPACE BHASKAR RAO NAGAR COLONY (OPEN SPACES)",
    "lat": 17.4898067,
    "lng": 78.5467193
  },
  {
    "name": "OPENSPACE,O.U.T COLONY (OPEN SPACES)",
    "lat": 17.4922124,
    "lng": 78.5431635
  },
  {
    "name": "OPENSPACE O.U.T COLONY (OPEN SPACES)",
    "lat": 17.493931,
    "lng": 78.5441947
  },
  {
    "name": "OPENSPACE,O.U.T COLONY (OPEN SPACES)",
    "lat": 17.493331,
    "lng": 78.5440271
  },
  {
    "name": "OPENSPACE,O.U.T COLONY (OPEN SPACES)",
    "lat": 17.4934059,
    "lng": 78.5446036
  },
  {
    "name": "OPENSPACE , CHAKHRA ENCLAVE (OPEN SPACES)",
    "lat": 17.4934756,
    "lng": 78.542319
  },
  {
    "name": "OPENSPACE,CHAKHRA ENCLAVE (OPEN SPACES)",
    "lat": 17.4940041,
    "lng": 78.5427877
  },
  {
    "name": "SUDHAKAR REDDY LAYOUT OPEN SPACE (OPEN SPACES)",
    "lat": 17.4963515,
    "lng": 78.5368355
  },
  {
    "name": "ANITA ENCLAVE, AMMUGUDA (OPEN SPACES)",
    "lat": 17.4961879,
    "lng": 78.5375772
  },
  {
    "name": "OPEN SPACE BHASKAR RAO NAGAR COLONY (OPEN SPACES)",
    "lat": 17.4926281,
    "lng": 78.5488163
  },
  {
    "name": "OPENSPACE, ESHWARA (OPEN SPACES)",
    "lat": 17.4934439,
    "lng": 78.5504644
  },
  {
    "name": "OPENSPACE, LAKE VI (OPEN SPACES)",
    "lat": 17.4951677,
    "lng": 78.5482085
  },
  {
    "name": "OPENSPACE, MANIKSA (OPEN SPACES)",
    "lat": 17.4956974,
    "lng": 78.5469755
  },
  {
    "name": "OPENSPACE, AKASH ENCLAVE (OPEN SPACES)",
    "lat": 17.496864,
    "lng": 78.5483665
  },
  {
    "name": "OPENSPACE, RAJARAJESHWARI (OPEN SPACES)",
    "lat": 17.497236,
    "lng": 78.5492469
  },
  {
    "name": "OPENSPACE, DLR COLONY (OPEN SPACES)",
    "lat": 17.4963175,
    "lng": 78.5487991
  },
  {
    "name": "SAKETH OPEN SPACE (OPEN SPACES)",
    "lat": 17.4970347,
    "lng": 78.5472022
  },
  {
    "name": "OPENSPACE, O.U.T COLONY (OPEN SPACES)",
    "lat": 17.4954626,
    "lng": 78.546017
  },
  {
    "name": "OPENSPACE, O.U.T COLONY (OPEN SPACES)",
    "lat": 17.4952902,
    "lng": 78.5451069
  },
  {
    "name": "OPENSPACE,O.U.T COLONY (OPEN SPACES)",
    "lat": 17.4957078,
    "lng": 78.5448419
  },
  {
    "name": "OPENSPACE,O.U.T COLONY (OPEN SPACES)",
    "lat": 17.4963834,
    "lng": 78.5449851
  },
  {
    "name": "KANDIGUDA,OPEN SPACE (OPEN SPACES)",
    "lat": 17.4968839,
    "lng": 78.5439168
  },
  {
    "name": "OPEN SPACE  KANDIGUDA (OPEN SPACES)",
    "lat": 17.496602,
    "lng": 78.5443231
  },
  {
    "name": "OPEN SPACE, KANDIGUDA (OPEN SPACES)",
    "lat": 17.4965766,
    "lng": 78.5437873
  },
  {
    "name": "OHT, SHIVPURI (OPEN SPACES)",
    "lat": 17.484977,
    "lng": 78.5597065
  },
  {
    "name": "OHT & OPENSPACE SRI RAM NAGAR (OPEN SPACES)",
    "lat": 17.4851386,
    "lng": 78.5624611
  },
  {
    "name": "SUDHAKAR REDDY LAYOUT PARK (PARKS)",
    "lat": 17.4970547,
    "lng": 78.5359163
  },
  {
    "name": "SRIRAMNAGAR COLONY  PARK (PARKS)",
    "lat": 17.4838581,
    "lng": 78.5638308
  },
  {
    "name": "SRI RAM NAGAR PARK (PARKS)",
    "lat": 17.4857706,
    "lng": 78.5636542
  },
  {
    "name": "GOWDHAPURI COLONY  PARK (PARKS)",
    "lat": 17.4873425,
    "lng": 78.5613304
  },
  {
    "name": "GREEN PARK ENCLAVE  PARK (PARKS)",
    "lat": 17.4902095,
    "lng": 78.5619255
  },
  {
    "name": "SHIVPURI COLONY  PARK (PARKS)",
    "lat": 17.4856621,
    "lng": 78.5588603
  },
  {
    "name": "CHANDRAPURI COLONY PARK (PARKS)",
    "lat": 17.4869455,
    "lng": 78.5591136
  },
  {
    "name": "BRUNDAVAN COLOLONY PARK (PARKS)",
    "lat": 17.4832846,
    "lng": 78.5600756
  },
  {
    "name": "ARUL COLONY PARK (PARKS)",
    "lat": 17.4820755,
    "lng": 78.5601571
  },
  {
    "name": "BALAJI ENCLAVE PARK (PARKS)",
    "lat": 17.4837481,
    "lng": 78.5643907
  },
  {
    "name": "OPENSPACE, GREEN PAR (PARKS)",
    "lat": 17.4910257,
    "lng": 78.5589411
  },
  {
    "name": "ASHOK MANIPURI WALKERS PARK (PARKS)",
    "lat": 17.4896147,
    "lng": 78.5576745
  },
  {
    "name": "RAJEEV NAGAR  PARK (PARKS)",
    "lat": 17.5019342,
    "lng": 78.5652488
  },
  {
    "name": "MYTRI VILLA  PARK (PARKS)",
    "lat": 17.4994382,
    "lng": 78.5544788
  },
  {
    "name": "COUNTRY ESTATE  PARK (PARKS)",
    "lat": 17.4936136,
    "lng": 78.5740934
  },
  {
    "name": "SAINIKPURI  X ROAD PARK (PARKS)",
    "lat": 17.4844891,
    "lng": 78.5486157
  },
  {
    "name": "SAINIKPURI  PARK (PARKS)",
    "lat": 17.4861596,
    "lng": 78.5529531
  },
  {
    "name": "ESHWARAPURI COLONY  PARK (PARKS)",
    "lat": 17.4871963,
    "lng": 78.5522005
  },
  {
    "name": "SAINIKPURI  WALKERS TRACK PARK (PARKS)",
    "lat": 17.4883843,
    "lng": 78.5477528
  },
  {
    "name": "SAINIKPURI CHILDREN PARK (PARKS)",
    "lat": 17.4876031,
    "lng": 78.5464701
  },
  {
    "name": "CHILDRENS PARK, AFOC (PARKS)",
    "lat": 17.4889449,
    "lng": 78.5434514
  },
  {
    "name": "NURSERY, LAKE VIEW (PARKS)",
    "lat": 17.4949437,
    "lng": 78.5508191
  },
  {
    "name": "RAGHAVA KALYAN PARK (PARKS)",
    "lat": 17.4969521,
    "lng": 78.5463427
  },
  {
    "name": "OUT COLONY PARK (PARKS)",
    "lat": 17.4956696,
    "lng": 78.5455694
  },
  {
    "name": "CHANDRAPURI COLONY PLAY GROUND (PLAY GROUNDS)",
    "lat": 17.4874328,
    "lng": 78.5585505
  },
  {
    "name": "PLAYGROUND, ADITHYA COLONY (PLAY GROUNDS)",
    "lat": 17.4853919,
    "lng": 78.561349
  },
  {
    "name": "PLAY GROUND, GANDHINAGAR (PLAY GROUNDS)",
    "lat": 17.4814931,
    "lng": 78.5610745
  },
  {
    "name": "SRIRAMNAGAR PLAY GROUND (PLAY GROUNDS)",
    "lat": 17.4830825,
    "lng": 78.5640295
  },
  {
    "name": "RADHA KRISHNA PURAM PLAYGROUND (PLAY GROUNDS)",
    "lat": 17.4953465,
    "lng": 78.5399853
  },
  {
    "name": "BHARATHARATNA PLAYGROUND, KANDIGUDA (PLAY GROUNDS)",
    "lat": 17.4972916,
    "lng": 78.5434559
  },
  {
    "name": "J J NAGAR AMMUGUDA FOOT BALL GROUND (PLAY GROUNDS)",
    "lat": 17.4984806,
    "lng": 78.5366191
  },
  {
    "name": "Opp. Call Public School - Ist Lifting (DUMPER BINS)",
    "lat": 17.4833447,
    "lng": 78.5649355
  },
  {
    "name": "Opp. Call Public School - IInd Lifting (DUMPER BINS)",
    "lat": 17.4834127,
    "lng": 78.5649165
  },
  {
    "name": "Opp. Call Public School - IIIrd Lifting (DUMPER BINS)",
    "lat": 17.4831962,
    "lng": 78.564832
  },
  {
    "name": "Vampuguda (DUMPER BINS)",
    "lat": 17.4951067,
    "lng": 78.5654448
  },
  {
    "name": "Yellareddyguda (DUMPER BINS)",
    "lat": 17.495215,
    "lng": 78.5654925
  },
  {
    "name": "Saket Nagar (DUMPER BINS)",
    "lat": 17.4942193,
    "lng": 78.5777992
  },
  {
    "name": "Sairam Nagar (DUMPER BINS)",
    "lat": 17.500679,
    "lng": 78.5853775
  },
  {
    "name": "Nethaji Nagar (DUMPER BINS)",
    "lat": 17.48308,
    "lng": 78.5647298
  },
  {
    "name": "Eswaripuri (DUMPER BINS)",
    "lat": 17.4910282,
    "lng": 78.5486823
  },
  {
    "name": "Officer's Colony (DUMPER BINS)",
    "lat": 17.4910412,
    "lng": 78.548795
  },
  {
    "name": "Kandiguda (DUMPER BINS)",
    "lat": 17.4876082,
    "lng": 78.5485228
  },
  {
    "name": "Jammigadda (DUMPER BINS)",
    "lat": 17.4926952,
    "lng": 78.5754843
  },
  {
    "name": "SHIVA NARSING HOME (HOSPITALS)",
    "lat": 17.4242724,
    "lng": 78.5567621
  },
  {
    "name": "VIJAYCHANDER CLINIC (HOSPITALS)",
    "lat": 17.4222727,
    "lng": 78.5467811
  },
  {
    "name": "SUDHA EYE HOSPITAL (HOSPITALS)",
    "lat": 17.422494,
    "lng": 78.5497407
  },
  {
    "name": "SRI LAKSHMI NURSING HOME (HOSPITALS)",
    "lat": 17.4214123,
    "lng": 78.5494056
  },
  {
    "name": "LAKSHMI PHYSIOTHERAPY AND REHABITATION CENTER (HOSPITALS)",
    "lat": 17.4206776,
    "lng": 78.5501792
  },
  {
    "name": "E.S.I HOSPITAL (HOSPITALS)",
    "lat": 17.4321464,
    "lng": 78.5526511
  },
  {
    "name": "CHANDAMAMA CHILDREN'S HOSPITAL (HOSPITALS)",
    "lat": 17.427359,
    "lng": 78.5518363
  },
  {
    "name": "SUDHA EYE HOSPITAL (HOSPITALS)",
    "lat": 17.4247374,
    "lng": 78.5481495
  },
  {
    "name": "WHITUS HOSPITAL (HOSPITALS)",
    "lat": 17.4187504,
    "lng": 78.5422897
  },
  {
    "name": "SRI VENKATESHWARA CLINIC (HOSPITALS)",
    "lat": 17.4322498,
    "lng": 78.5463868
  },
  {
    "name": "SRINIVASA CLINIC (HOSPITALS)",
    "lat": 17.4304708,
    "lng": 78.549853
  },
  {
    "name": "NACHARAM PEOPLE HOSPITAL (HOSPITALS)",
    "lat": 17.4289707,
    "lng": 78.5499657
  },
  {
    "name": "SARITHA DENTAL CLINIC (HOSPITALS)",
    "lat": 17.486318,
    "lng": 78.555606
  },
  {
    "name": "ASHA HOSPITAL (HOSPITALS)",
    "lat": 17.4837413,
    "lng": 78.5581344
  },
  {
    "name": "Dr RAJUS VETERNARY HOSPITAL (HOSPITALS)",
    "lat": 17.4935391,
    "lng": 78.5420244
  },
  {
    "name": "SRINIVASA HOSPITAL (HOSPITALS)",
    "lat": 17.4937023,
    "lng": 78.5400136
  },
  {
    "name": "S.K REDDY HOSPITAL (HOSPITALS)",
    "lat": 17.4820109,
    "lng": 78.5765783
  },
  {
    "name": "VENKATESWARA HOSPITAL (HOSPITALS)",
    "lat": 17.4792716,
    "lng": 78.5741306
  },
  {
    "name": "XENIA HOSPITAL (HOSPITALS)",
    "lat": 17.4727134,
    "lng": 78.5713525
  },
  {
    "name": "TULASI HOSPITAL (HOSPITALS)",
    "lat": 17.4748716,
    "lng": 78.5708607
  },
  {
    "name": "LIONS CLUB EYE HOSPITAL (HOSPITALS)",
    "lat": 17.4571389,
    "lng": 78.5631028
  },
  {
    "name": "JUBLI CHILDREN HOSPITAL (HOSPITALS)",
    "lat": 17.4747458,
    "lng": 78.5628981
  },
  {
    "name": "Dr.NAGARJUNA CHILDREN HOSPITAL (HOSPITALS)",
    "lat": 17.4761573,
    "lng": 78.5639949
  },
  {
    "name": "RAGHAVENDRA HOSPITAL (HOSPITALS)",
    "lat": 17.4748351,
    "lng": 78.5678487
  },
  {
    "name": "SANJEEVANI HOSPITAL (HOSPITALS)",
    "lat": 17.4679063,
    "lng": 78.5729685
  },
  {
    "name": "ARC HOSPITAL (HOSPITALS)",
    "lat": 17.4715448,
    "lng": 78.5676116
  },
  {
    "name": "LIFE LINE POLY CLINIC (HOSPITALS)",
    "lat": 17.4772406,
    "lng": 78.5563967
  },
  {
    "name": "Dr.AS RAO CLINIC (HOSPITALS)",
    "lat": 17.4800236,
    "lng": 78.5564889
  },
  {
    "name": "POULOMI HOSPITAL (HOSPITALS)",
    "lat": 17.4825213,
    "lng": 78.5528754
  },
  {
    "name": "ALI CLINIC (HOSPITALS)",
    "lat": 17.3482474,
    "lng": 78.4577774
  },
  {
    "name": "CURE&CARE CLINIC (HOSPITALS)",
    "lat": 17.3479406,
    "lng": 78.4603672
  },
  {
    "name": "NOBIA CLINIC (HOSPITALS)",
    "lat": 17.3490059,
    "lng": 78.4600506
  },
  {
    "name": "HUSSAIN MEMORIAL POLY CLINIC (HOSPITALS)",
    "lat": 17.349177,
    "lng": 78.457927
  },
  {
    "name": "TAYYAB CLINIC (HOSPITALS)",
    "lat": 17.3549478,
    "lng": 78.4628235
  },
  {
    "name": "PARAGON CLINIC (HOSPITALS)",
    "lat": 17.3549138,
    "lng": 78.4630328
  },
  {
    "name": "SHIFA CLINIC (HOSPITALS)",
    "lat": 17.3492567,
    "lng": 78.4611721
  },
  {
    "name": "URBAN HEALTH POST (HOSPITALS)",
    "lat": 17.3504246,
    "lng": 78.4610439
  },
  {
    "name": "IBNESINA HEALTH CENTRE (HOSPITALS)",
    "lat": 17.3414686,
    "lng": 78.4636431
  },
  {
    "name": "GHAREEB NAWAAZ POLY CLINIC (HOSPITALS)",
    "lat": 17.3477571,
    "lng": 78.4606545
  },
  {
    "name": "MADINA CLINIC (HOSPITALS)",
    "lat": 17.3405507,
    "lng": 78.4616549
  },
  {
    "name": "URBAN HEALTH POST (HOSPITALS)",
    "lat": 17.3399432,
    "lng": 78.4623682
  },
  {
    "name": "UNANI HOSPITAL (HOSPITALS)",
    "lat": 17.3414298,
    "lng": 78.4653167
  },
  {
    "name": "RAHMAN CLINIC (HOSPITALS)",
    "lat": 17.3419311,
    "lng": 78.4651304
  },
  {
    "name": "REHAN CLINIC (HOSPITALS)",
    "lat": 17.344124,
    "lng": 78.4600361
  },
  {
    "name": "SADAAT CLINIC (HOSPITALS)",
    "lat": 17.3435602,
    "lng": 78.4639811
  },
  {
    "name": "COSMODENT MULTI SPECIAL HOSPITAL (HOSPITALS)",
    "lat": 17.3453545,
    "lng": 78.4658275
  },
  {
    "name": "NAWAZ CLINIC (HOSPITALS)",
    "lat": 17.3436229,
    "lng": 78.4574034
  },
  {
    "name": "ZAIDI DIAGNOSTIC CENTRE (HOSPITALS)",
    "lat": 17.343907,
    "lng": 78.457516
  },
  {
    "name": "BANDAN AWAZ POLYCLINIC (HOSPITALS)",
    "lat": 17.3386696,
    "lng": 78.4573945
  },
  {
    "name": "HASSAN CLINIC (HOSPITALS)",
    "lat": 17.3402894,
    "lng": 78.4570557
  },
  {
    "name": "ARITA POLYCLINIC (HOSPITALS)",
    "lat": 17.3350655,
    "lng": 78.4572393
  },
  {
    "name": "FIROSAT CLINIC (HOSPITALS)",
    "lat": 17.3375814,
    "lng": 78.4566763
  },
  {
    "name": "RAHMAT CLINIC (HOSPITALS)",
    "lat": 17.336518,
    "lng": 78.4548124
  },
  {
    "name": "ARIF DISPENSARY (HOSPITALS)",
    "lat": 17.3369017,
    "lng": 78.454148
  },
  {
    "name": "MAMATA NURSING HOME (HOSPITALS)",
    "lat": 17.3495451,
    "lng": 78.4639368
  },
  {
    "name": "HARBAL PUBLIC HEALTH CENTRE (HOSPITALS)",
    "lat": 17.3519285,
    "lng": 78.4637932
  },
  {
    "name": "ST.ANNAS HOSPITAL (HOSPITALS)",
    "lat": 17.3371408,
    "lng": 78.4576448
  },
  {
    "name": "HAFEEZ CLINIC (HOSPITALS)",
    "lat": 17.3316976,
    "lng": 78.4580257
  },
  {
    "name": "ST.ANNS HOSPITAL (HOSPITALS)",
    "lat": 17.3374512,
    "lng": 78.457608
  },
  {
    "name": "HALMAIN HOSPITAL (HOSPITALS)",
    "lat": 17.3369413,
    "lng": 78.4678929
  },
  {
    "name": "MAHAMMEDI HOSPITAL (HOSPITALS)",
    "lat": 17.3559815,
    "lng": 78.4535199
  },
  {
    "name": "S.S.V.DIAGNOSTIC CENTRE (HOSPITALS)",
    "lat": 17.3552832,
    "lng": 78.4545354
  },
  {
    "name": "MAIKKAH NURSING HOME (HOSPITALS)",
    "lat": 17.3443778,
    "lng": 78.4572634
  },
  {
    "name": "FATIMA CLINIC (HOSPITALS)",
    "lat": 17.3280432,
    "lng": 78.4639869
  },
  {
    "name": "ABDULLAH CLINIC (HOSPITALS)",
    "lat": 17.3281359,
    "lng": 78.4639816
  },
  {
    "name": "AYESHA CLINIC (HOSPITALS)",
    "lat": 17.3634819,
    "lng": 78.442013
  },
  {
    "name": "USHA MEMORIAL HOSPITAL (HOSPITALS)",
    "lat": 17.357816,
    "lng": 78.4415645
  },
  {
    "name": "SRIRAM CLINIC (HOSPITALS)",
    "lat": 17.3593752,
    "lng": 78.443022
  },
  {
    "name": "TRIVENI HOSPITAL (HOSPITALS)",
    "lat": 17.3575457,
    "lng": 78.4425098
  },
  {
    "name": "null (TOILETS)",
    "lat": 17.3867843,
    "lng": 78.5483569
  },
  {
    "name": "WARANGAL HIGHWAY NALLACHERU OPP BHARTH PETROLPUMP BESIDE SAIBABA TEMPLE (TOILETS)",
    "lat": 17.4007732,
    "lng": 78.5802899
  },
  {
    "name": "NALLACHERU OPP SIDE ROAD HP PETROL PUMP (TOILETS)",
    "lat": 17.4014316,
    "lng": 78.5764771
  },
  {
    "name": "WARANGAL HIGHWAY IN UPPAL MAIN ROAD BHARATH PETROL PUMP BESIDE ASIAN THEATER LANE (TOILETS)",
    "lat": 17.4023024,
    "lng": 78.5739006
  },
  {
    "name": "BHARTH PETROLPUMP WARANGAL HIGHWAY ASIAN THEATER BESIDE (TOILETS)",
    "lat": 17.402163,
    "lng": 78.5715814
  },
  {
    "name": "UPPAL ZILLA PARISHADH HIGH SCHOOL BESIDE (TOILETS)",
    "lat": 17.4034359,
    "lng": 78.5708434
  },
  {
    "name": "null (TOILETS)",
    "lat": 17.4016335,
    "lng": 78.5692191
  },
  {
    "name": "UPPAL BUS STOP WARANGAL HIGHWAY (TOILETS)",
    "lat": 17.4018037,
    "lng": 78.5683979
  },
  {
    "name": "UPPAL KAMAN VENKATESHWARA TEMPLE ROAD BESIDE BUS STOP AUTO STAND (TOILETS)",
    "lat": 17.4017889,
    "lng": 78.5683556
  },
  {
    "name": "WARANGAL HIGHWAY AT UPPAL REGESTRATION OFFICE ROAD OPP (TOILETS)",
    "lat": 17.4016758,
    "lng": 78.5634422
  },
  {
    "name": "NAGOL TO UPPAL HIGHWAY ROAD OPP MASTER CHEF & RAJALAXMI THEATOR IN UPPAL HYDERABAD (TOILETS)",
    "lat": 17.4010282,
    "lng": 78.5605735
  },
  {
    "name": "NAGOL TO UPPAL MAIN ROAD IN HYDERABAD (TOILETS)",
    "lat": 17.3922811,
    "lng": 78.5596584
  },
  {
    "name": "UPPAL RTO OFFICE MAIN GATE (TOILETS)",
    "lat": 17.3924102,
    "lng": 78.5592344
  },
  {
    "name": "null (TOILETS)",
    "lat": 17.3918864,
    "lng": 78.5587208
  },
  {
    "name": "LAXMAREDDY COLONY WARD OFFICE AND GYM (COMMUNITY HALLS)",
    "lat": 17.4007932,
    "lng": 78.5625579
  },
  {
    "name": "SARASWATHI NAGAR COLONY OPENSPACE CONFORM WITH HCIRCLE OFFICE (COMMUNITY HALLS)",
    "lat": 17.3946118,
    "lng": 78.5607923
  },
  {
    "name": "RAJNAGAR COLONY COMMUNITY HALL (COMMUNITY HALLS)",
    "lat": 17.3963469,
    "lng": 78.5617061
  },
  {
    "name": "SARASWATHI COLONY COMMUNITY HALL (COMMUNITY HALLS)",
    "lat": 17.394454,
    "lng": 78.55987
  },
  {
    "name": "HANUMASAI NAGAR COMMUNITY HALL (COMMUNITY HALLS)",
    "lat": 17.3983273,
    "lng": 78.5648156
  },
  {
    "name": "VIJAYAPURI COLONY COMMUNITY HALL (COMMUNITY HALLS)",
    "lat": 17.3979961,
    "lng": 78.5659605
  },
  {
    "name": "NEW VIJAYAPURI COLONY COMMUNITY HALL (COMMUNITY HALLS)",
    "lat": 17.3971141,
    "lng": 78.568205
  },
  {
    "name": "SAIRAM COLONY COMMUNITY HALL (COMMUNITY HALLS)",
    "lat": 17.394437,
    "lng": 78.5683164
  },
  {
    "name": "NEW SHANTHI NAGAR COMMUNITY HALL (COMMUNITY HALLS)",
    "lat": 17.3976064,
    "lng": 78.5715964
  },
  {
    "name": "SATYA NAGAR COMMUNITY HALL (COMMUNITY HALLS)",
    "lat": 17.3986054,
    "lng": 78.5724432
  },
  {
    "name": "SHANTHI NAGAR COMMUNITY HALL (COMMUNITY HALLS)",
    "lat": 17.4010678,
    "lng": 78.5711867
  },
  {
    "name": "ARUNDATHIYAN,á YUVAJANA SANGAM GANDHI NAGAR-1 COMMUNITY HALL (COMMUNITY HALLS)",
    "lat": 17.4031824,
    "lng": 78.5694216
  },
  {
    "name": "GANDHINAGAR (NEAR GRAVEYARD) COMMUNITY HALL UPPAL, UPPAL CIRCLR2 (COMMUNITY HALLS)",
    "lat": 17.4035967,
    "lng": 78.5696307
  },
  {
    "name": "BHARATH NAGAR COMMUNITY HALL AND SCHOOL (COMMUNITY HALLS)",
    "lat": 17.4053887,
    "lng": 78.5656408
  },
  {
    "name": "INDIRA NAGAR (HARIJANA BASTHI) COMMUNITY HALL (COMMUNITY HALLS)",
    "lat": 17.4038752,
    "lng": 78.5680681
  },
  {
    "name": "VINAYAK NAGAR COMMUNITY HALL (COMMUNITY HALLS)",
    "lat": 17.4024718,
    "lng": 78.5676151
  },
  {
    "name": "MAHILA YUVAJANA SANGHAM, BHARATH NAGAR MAHILA BHAVAN (COMMUNITY HALLS)",
    "lat": 17.4021059,
    "lng": 78.566397
  },
  {
    "name": "SOUTH SWAROOP NAGAR COMMUNITY HALL (COMMUNITY HALLS)",
    "lat": 17.4061568,
    "lng": 78.5717515
  },
  {
    "name": "SURYA NAGAR WELFARE ASSOCIATION COMMUNITY HALL (COMMUNITY HALLS)",
    "lat": 17.3987443,
    "lng": 78.5621039
  },
  {
    "name": "LAXMINARAYANA COLONY COMMUNITY HALL (COMMUNITY HALLS)",
    "lat": 17.3900562,
    "lng": 78.5490866
  },
  {
    "name": "MALA BASTHI COMMUNITY HALL (COMMUNITY HALLS)",
    "lat": 17.4052653,
    "lng": 78.5638031
  },
  {
    "name": "SAKALI BASTHI COMMUNITY HALL (COMMUNITY HALLS)",
    "lat": 17.4039842,
    "lng": 78.563782
  },
  {
    "name": "DEVENDER NAGAR COMMUNITY HALL (COMMUNITY HALLS)",
    "lat": 17.3866576,
    "lng": 78.5499229
  },
  {
    "name": "VIJAYAPURI COLONY_III OPEN SPACE (OPEN SPACES)",
    "lat": 17.3979423,
    "lng": 78.5698416
  },
  {
    "name": "SATYANAGAR COLONY_1 OPEN SPACE (OPEN SPACES)",
    "lat": 17.3985828,
    "lng": 78.5721915
  },
  {
    "name": "GHMC OPEN SPACE,LAXMA REDDY COLONY (OPEN SPACES)",
    "lat": 17.3962842,
    "lng": 78.5676383
  },
  {
    "name": "SATYANAGAR COLONY PARK (PARKS)",
    "lat": 17.3996631,
    "lng": 78.573124
  },
  {
    "name": "SARASWATHI NAGAR COLONY PARK (PARKS)",
    "lat": 17.3953389,
    "lng": 78.5608139
  },
  {
    "name": "GANDHINAGAR PLAY GROUND (PLAY GROUNDS)",
    "lat": 17.4037752,
    "lng": 78.5698187
  },
  {
    "name": "Habsiguda - Modern Bakery (DUMPER BINS)",
    "lat": 17.4012002,
    "lng": 78.5512025
  },
  {
    "name": "Uppal - Bank Colony ( Kalyanpuri) (DUMPER BINS)",
    "lat": 17.4025487,
    "lng": 78.5707042
  },
  {
    "name": "Uppal - Vegetable Market (DUMPER BINS)",
    "lat": 17.402544,
    "lng": 78.5706372
  },
  {
    "name": "Uppal - Vegetable Market (DUMPER BINS)",
    "lat": 17.4026763,
    "lng": 78.5706807
  },
  {
    "name": "Uppal - Vegetable Market (DUMPER BINS)",
    "lat": 17.402602,
    "lng": 78.5707538
  },
  {
    "name": "Uppal - Vegetable Market (DUMPER BINS)",
    "lat": 17.4026743,
    "lng": 78.5705752
  },
  {
    "name": "Uppal - Vegetable Market (DUMPER BINS)",
    "lat": 17.4026382,
    "lng": 78.5704442
  },
  {
    "name": "SPOORTHY NIGHT SHELTER FOR WOMENS (NIGHT SHELTERS)",
    "lat": 17.4012223,
    "lng": 78.5654593
  },
  {
    "name": "BALKAMPET WARD OFFICE, WARD NO.7.B.K.GUDA . (TOILETS)",
    "lat": 17.4466559,
    "lng": 78.4467343
  },
  {
    "name": "'D'MART SHOW ROOM ,SANATHNAGAR . (TOILETS)",
    "lat": 17.4564211,
    "lng": 78.4447727
  },
  {
    "name": "POLUTION CONTROL BOARD,SANATH NAGAR (TOILETS)",
    "lat": 17.4569059,
    "lng": 78.4417359
  },
  {
    "name": "KANJARLA LAXMINARAYANA YADAV PARK,B.K.GUDA, BALKAMPET (TOILETS)",
    "lat": 17.4498236,
    "lng": 78.4402257
  },
  {
    "name": "SANATH NAGAR SERVICE STATION .ERRAGADDA.BHARATH PETROL BUNK. (TOILETS)",
    "lat": 17.4543634,
    "lng": 78.4350716
  },
  {
    "name": "ERRAGADDA,ASHOK SERVICE STATION (TOILETS)",
    "lat": 17.4549384,
    "lng": 78.4348377
  },
  {
    "name": "ERRAGADDA ,BESIDE OF FCI GODON,OPP.JK POINT HOTEL. (TOILETS)",
    "lat": 17.4564713,
    "lng": 78.4346468
  },
  {
    "name": "BALKAMPET YELLAMMA TEMPLE RIGHT SIDE S.G.S.S.ENTERPRISES (TOILETS)",
    "lat": 17.4492138,
    "lng": 78.4496999
  },
  {
    "name": "BALKAMET,CHAMUNDESHWARI FILLING STATION.NEAR BY YELLAMMA TEMPLE (TOILETS)",
    "lat": 17.4492138,
    "lng": 78.4496999
  },
  {
    "name": "SANATH NAGAR BUS STOP (TOILETS)",
    "lat": 17.454174,
    "lng": 78.4477305
  },
  {
    "name": "KAILASH NAGAR COMMUNITY HALL, SANATH N (COMMUNITY HALLS)",
    "lat": 17.4519843,
    "lng": 78.4460526
  },
  {
    "name": "SUNDER NAGAR COMMUNITY HALL (COMMUNITY HALLS)",
    "lat": 17.4507297,
    "lng": 78.4387392
  },
  {
    "name": "UDAY NAGAR WELFARE ASSOCATION (COMMUNITY HALLS)",
    "lat": 17.4521602,
    "lng": 78.4413999
  },
  {
    "name": "RAVINDRANAGAR WELFARE ASSOCATION (COMMUNITY HALLS)",
    "lat": 17.4490831,
    "lng": 78.4422669
  },
  {
    "name": "GHMC LIFTING CENTER, SANATH NAGAR (OPEN SPACES)",
    "lat": 17.4540766,
    "lng": 78.4476149
  },
  {
    "name": "SANATH NAGAR OPEN SPACE (OPEN SPACES)",
    "lat": 17.4556244,
    "lng": 78.4406955
  },
  {
    "name": "SANATH NAGAR OPEN SPACE (OPEN SPACES)",
    "lat": 17.4548657,
    "lng": 78.4419774
  },
  {
    "name": "SANATH NAGAR OPEN SPACE (OPEN SPACES)",
    "lat": 17.4549261,
    "lng": 78.441595
  },
  {
    "name": "SANATH NAGAR OPEN SPACE (OPEN SPACES)",
    "lat": 17.4535066,
    "lng": 78.4476291
  },
  {
    "name": "SANATH NAGAR OPEN SPACE (OPEN SPACES)",
    "lat": 17.4561444,
    "lng": 78.4392395
  },
  {
    "name": "SANATH NAGAR OPEN SPACE (OPEN SPACES)",
    "lat": 17.4504825,
    "lng": 78.4401836
  },
  {
    "name": "SANATH NAGAR OPEN SPACE (OPEN SPACES)",
    "lat": 17.4503581,
    "lng": 78.4371232
  },
  {
    "name": "SANATH NAGAR TSSPDCL OFFICE (OPEN SPACES)",
    "lat": 17.456832,
    "lng": 78.4362507
  },
  {
    "name": "SANATH NAGAR PARK (PARKS)",
    "lat": 17.4528783,
    "lng": 78.4439735
  },
  {
    "name": "SANATH NAGAR PARK (PARKS)",
    "lat": 17.4561111,
    "lng": 78.4407843
  },
  {
    "name": "SANATH NAGAR PARK (PARKS)",
    "lat": 17.4538416,
    "lng": 78.4466759
  },
  {
    "name": "GHMC PARK, BHAGATH SINGH PARK (PARKS)",
    "lat": 17.4546613,
    "lng": 78.4469649
  },
  {
    "name": "SANATH NAGAR COLONY PARK (PARKS)",
    "lat": 17.4552403,
    "lng": 78.4468835
  },
  {
    "name": "SANATH NAGAR PARK (PARKS)",
    "lat": 17.4539791,
    "lng": 78.442229
  },
  {
    "name": "SANATH NAGAR PARK (PARKS)",
    "lat": 17.4542231,
    "lng": 78.4430769
  },
  {
    "name": "SANATH NAGAR PARK (PARKS)",
    "lat": 17.4555605,
    "lng": 78.4412517
  },
  {
    "name": "SANATH NAGAR PARK (PARKS)",
    "lat": 17.4558458,
    "lng": 78.4402463
  },
  {
    "name": "SANATH NAGAR PARK (PARKS)",
    "lat": 17.4559288,
    "lng": 78.4399018
  },
  {
    "name": "SANATH NAGAR PARK (PARKS)",
    "lat": 17.4535133,
    "lng": 78.4421986
  },
  {
    "name": "SANATH NAGAR PARK (PARKS)",
    "lat": 17.4551343,
    "lng": 78.4420317
  },
  {
    "name": "SANATH NAGAR PARK (PARKS)",
    "lat": 17.4551957,
    "lng": 78.4416155
  },
  {
    "name": "SANATH NAGAR PARK (PARKS)",
    "lat": 17.4554269,
    "lng": 78.4423595
  },
  {
    "name": "SANATH NAGAR PARK (PARKS)",
    "lat": 17.4556065,
    "lng": 78.4417092
  },
  {
    "name": "SANATH NAGAR PARK (PARKS)",
    "lat": 17.4559269,
    "lng": 78.4423642
  },
  {
    "name": "SANATH NAGAR PARK (PARKS)",
    "lat": 17.4560801,
    "lng": 78.4416841
  },
  {
    "name": "SANATH NAGAR PARK (PARKS)",
    "lat": 17.4537451,
    "lng": 78.4429856
  },
  {
    "name": "NEHRU PARK (PARKS)",
    "lat": 17.4547658,
    "lng": 78.4431659
  },
  {
    "name": "SANATH NAGAR PARK (PARKS)",
    "lat": 17.4553607,
    "lng": 78.443278
  },
  {
    "name": "SANATH NAGAR PARK (PARKS)",
    "lat": 17.4558528,
    "lng": 78.4433694
  },
  {
    "name": "SANATH NAGAR PARK (PARKS)",
    "lat": 17.4553797,
    "lng": 78.4444392
  },
  {
    "name": "SANATH NAGAR PARK (PARKS)",
    "lat": 17.4528796,
    "lng": 78.4466411
  },
  {
    "name": "KAILASHNAGAR PARK (PARKS)",
    "lat": 17.4522926,
    "lng": 78.4465235
  },
  {
    "name": "SANATH NAGAR PARK (PARKS)",
    "lat": 17.4526801,
    "lng": 78.4451337
  },
  {
    "name": "SANATH NAGAR PARK (PARKS)",
    "lat": 17.4469791,
    "lng": 78.4437822
  },
  {
    "name": "SANATH NAGAR PARK (PARKS)",
    "lat": 17.4544544,
    "lng": 78.4423696
  },
  {
    "name": "SANATH NAGAR PARK (PARKS)",
    "lat": 17.4541484,
    "lng": 78.4410056
  },
  {
    "name": "SANATH NAGAR PARK (PARKS)",
    "lat": 17.4542303,
    "lng": 78.4404403
  },
  {
    "name": "SANATH NAGAR PARK (PARKS)",
    "lat": 17.4546746,
    "lng": 78.4410736
  },
  {
    "name": "SUNSHINE PARK (PARKS)",
    "lat": 17.4547619,
    "lng": 78.4405393
  },
  {
    "name": "SANATH NAGAR PARK (PARKS)",
    "lat": 17.4547088,
    "lng": 78.4399588
  },
  {
    "name": "SANATH NAGAR PARK (PARKS)",
    "lat": 17.4546805,
    "lng": 78.4395805
  },
  {
    "name": "SANATH NAGAR PARK (PARKS)",
    "lat": 17.4551796,
    "lng": 78.4400423
  },
  {
    "name": "SANATH NAGAR PARK (PARKS)",
    "lat": 17.4554221,
    "lng": 78.4401852
  },
  {
    "name": "SANATH NAGAR PARK (PARKS)",
    "lat": 17.4555091,
    "lng": 78.4397195
  },
  {
    "name": "SANATH NAGAR PARK (PARKS)",
    "lat": 17.4557546,
    "lng": 78.4393947
  },
  {
    "name": "SANATH NAGAR PARK (PARKS)",
    "lat": 17.4562871,
    "lng": 78.4395223
  },
  {
    "name": "SUBHASH NAGAR PARK (PARKS)",
    "lat": 17.4503579,
    "lng": 78.4460276
  },
  {
    "name": "SR NAGAR COLONY PARK (PARKS)",
    "lat": 17.4465538,
    "lng": 78.4462192
  },
  {
    "name": "BK GUDA LIG COLONY PARK (PARKS)",
    "lat": 17.4480347,
    "lng": 78.4455269
  },
  {
    "name": "JAIPRAKASH NAGAR COLONY PARK (PARKS)",
    "lat": 17.4505661,
    "lng": 78.4472976
  },
  {
    "name": "MODEL COLONY PARK (PARKS)",
    "lat": 17.4497108,
    "lng": 78.4394997
  },
  {
    "name": "SANATH NAGAR PARK (PARKS)",
    "lat": 17.4567951,
    "lng": 78.4358348
  },
  {
    "name": "INDUSTRIAL PARK (PARKS)",
    "lat": 17.4569287,
    "lng": 78.4434534
  },
  {
    "name": "UDAY NAGAR COLONY PARK (PARKS)",
    "lat": 17.4525326,
    "lng": 78.4410598
  },
  {
    "name": "KLN PARK (PARKS)",
    "lat": 17.4496153,
    "lng": 78.4408593
  },
  {
    "name": "SANATH NAGAR HAND BALL PLAY GROUND (PLAY GROUNDS)",
    "lat": 17.4522603,
    "lng": 78.4474271
  },
  {
    "name": "SANATH NAGAR PLAY GROUND (PLAY GROUNDS)",
    "lat": 17.4539258,
    "lng": 78.4449781
  },
  {
    "name": "SANATH NAGAR BASKET HALL PLAY GROUND (PLAY GROUNDS)",
    "lat": 17.4551851,
    "lng": 78.4456001
  },
  {
    "name": "UDAY NAGAR PLAYGROUND, LIG BK GUDA (PLAY GROUNDS)",
    "lat": 17.4508784,
    "lng": 78.4413873
  },
  {
    "name": "Zet Colony back, St. Therissa Hospital - 2nd Lift (DUMPER BINS)",
    "lat": 17.4568277,
    "lng": 78.4357098
  },
  {
    "name": "Hylam Galli - 2nd Lift (DUMPER BINS)",
    "lat": 17.4543883,
    "lng": 78.4490097
  },
  {
    "name": "Gokul Theater Opp.Lane - 2nd Lift (DUMPER BINS)",
    "lat": 17.4540227,
    "lng": 78.4356742
  },
  {
    "name": "Lingaiah Nagar-2nd lift (DUMPER BINS)",
    "lat": 17.4486665,
    "lng": 78.4490457
  },
  {
    "name": "Industrial Estate A.T.M-2nd lift (DUMPER BINS)",
    "lat": 17.4574133,
    "lng": 78.447149
  },
  {
    "name": "Shivaji Nagar jet colony-2nd lift (DUMPER BINS)",
    "lat": 17.4568897,
    "lng": 78.435726
  },
  {
    "name": "Red Pole Opp. ,Sanath Nagar Ps. Industrial Estate -2 -2nd lift (DUMPER BINS)",
    "lat": 17.4580238,
    "lng": 78.4470453
  },
  {
    "name": "Fathe Nagar Bridge Down-2nd lift (DUMPER BINS)",
    "lat": 17.4531933,
    "lng": 78.4501923
  },
  {
    "name": "F.C.I Godown Erragadda -2nd lift (DUMPER BINS)",
    "lat": 17.4569157,
    "lng": 78.4357282
  },
  {
    "name": "Red Pole Opp. ,Sanath Nagar P. S Industrial Estate-1 -2nd lift (DUMPER BINS)",
    "lat": 17.4578733,
    "lng": 78.4472443
  },
  {
    "name": "Sanath Nagar Bus Stop-2nd lift (DUMPER BINS)",
    "lat": 17.4543087,
    "lng": 78.4478352
  },
  {
    "name": "Dasaram Basthi-3 -2nd lift (DUMPER BINS)",
    "lat": 17.448371,
    "lng": 78.4435057
  },
  {
    "name": "Dasaram Basthi-2 -2nd lift (DUMPER BINS)",
    "lat": 17.4483255,
    "lng": 78.4435207
  },
  {
    "name": "Dasaram Basthi-1-2nd lift (DUMPER BINS)",
    "lat": 17.4484697,
    "lng": 78.4434842
  },
  {
    "name": "Hylam Galli - 1st Lift (DUMPER BINS)",
    "lat": 17.4543753,
    "lng": 78.4489447
  },
  {
    "name": "Gokul Theater  Oppt. Lane - 1st Lift (DUMPER BINS)",
    "lat": 17.4539908,
    "lng": 78.4357928
  },
  {
    "name": "Zet Colony back, St. Therissa Hospital - 1st Lift (DUMPER BINS)",
    "lat": 17.4569118,
    "lng": 78.4356767
  },
  {
    "name": "Industrial Estate A.T.M - 1st Lift (DUMPER BINS)",
    "lat": 17.4577673,
    "lng": 78.4472355
  },
  {
    "name": "Shivaji Nagar jet colony - 1st Lift (DUMPER BINS)",
    "lat": 17.4568635,
    "lng": 78.435677
  },
  {
    "name": "Red Pole Opp. ,Sanath Nagar Ps. Industrial Estate - II - 1st Lift (DUMPER BINS)",
    "lat": 17.4578217,
    "lng": 78.447223
  },
  {
    "name": "Sanath Nagar Bus Stop - 1st Lift (DUMPER BINS)",
    "lat": 17.4541767,
    "lng": 78.4479245
  },
  {
    "name": "Fathe Nagar Bridge Down - 1st Lift (DUMPER BINS)",
    "lat": 17.453144,
    "lng": 78.450089
  },
  {
    "name": "Dasaram Basthi-3 - 1st Lift (DUMPER BINS)",
    "lat": 17.4483737,
    "lng": 78.44341
  },
  {
    "name": "Dasaram Basthi-2 - 1st Lift (DUMPER BINS)",
    "lat": 17.4487757,
    "lng": 78.4434097
  },
  {
    "name": "Dasaram Basthi-1 - 1st Lift (DUMPER BINS)",
    "lat": 17.4483513,
    "lng": 78.443429
  },
  {
    "name": "Red Pole Opp. ,Sanath Nagar Ps. Industrial Estate - I - 1st Lift (DUMPER BINS)",
    "lat": 17.4580472,
    "lng": 78.4472855
  },
  {
    "name": "F.C.I Godown Erragadda - 1st Lift (DUMPER BINS)",
    "lat": 17.456877,
    "lng": 78.4357312
  },
  {
    "name": "Nehru Park Opp. (DUMPER BINS)",
    "lat": 17.4556637,
    "lng": 78.4437287
  },
  {
    "name": "Ramulamma kundi (DUMPER BINS)",
    "lat": 17.4557373,
    "lng": 78.443704
  },
  {
    "name": "Near Victory Garden Function Hall (DUMPER BINS)",
    "lat": 17.4558657,
    "lng": 78.4436627
  },
  {
    "name": "Musapet Under Bridge, Erragadda (DUMPER BINS)",
    "lat": 17.4607225,
    "lng": 78.4319563
  },
  {
    "name": "Allauddin koti back, Rly Track (DUMPER BINS)",
    "lat": 17.4577678,
    "lng": 78.4472483
  },
  {
    "name": "Allauddin koti (DUMPER BINS)",
    "lat": 17.4578595,
    "lng": 78.4472983
  },
  {
    "name": "Hindu Public School (DUMPER BINS)",
    "lat": 17.4534962,
    "lng": 78.4404412
  },
  {
    "name": "Alwaan Company, Function Hall (DUMPER BINS)",
    "lat": 17.4562455,
    "lng": 78.4386915
  },
  {
    "name": "OPPOSITE ESI HOSPITAL MAIN ROAD, ERRAGADDA,HYDERABAD, TELANGANA. (TOILETS)",
    "lat": 17.4480496,
    "lng": 78.4375699
  },
  {
    "name": "ERRAGADDA RHYTHU BAZAR, ERRAGADDA, HYDERABAD (TOILETS)",
    "lat": 17.4513427,
    "lng": 78.4356147
  },
  {
    "name": "OLDSHASHTRINAGAR COMMUNITY HALL (COMMUNITY HALLS)",
    "lat": 17.4569052,
    "lng": 78.4263968
  },
  {
    "name": "PREMNAGAR COMMUNITY HALL (COMMUNITY HALLS)",
    "lat": 17.4549605,
    "lng": 78.4331379
  },
  {
    "name": "NATRAJNAGAR COMMUNITY HALL (COMMUNITY HALLS)",
    "lat": 17.4501972,
    "lng": 78.4274304
  },
  {
    "name": "FATHIMANAGAT COMMUNITY HALL (COMMUNITY HALLS)",
    "lat": 17.4496064,
    "lng": 78.4263391
  },
  {
    "name": "HYMAVATHINAGAR COMMUNITY HALL (COMMUNITY HALLS)",
    "lat": 17.4549684,
    "lng": 78.4248051
  },
  {
    "name": "BSHANKARLALNAGAR COMMUNITY HALL (COMMUNITY HALLS)",
    "lat": 17.4534741,
    "lng": 78.4297158
  },
  {
    "name": "SHANKARLALNANAGAR COMMUNITY HALL (COMMUNITY HALLS)",
    "lat": 17.4523463,
    "lng": 78.4285801
  },
  {
    "name": "OLDSULTHANAGAR COMMUNITIHALL (COMMUNITY HALLS)",
    "lat": 17.4568971,
    "lng": 78.4302314
  },
  {
    "name": "BANJARANAGAR  COMMUNITY HALL (COMMUNITY HALLS)",
    "lat": 17.4559791,
    "lng": 78.4307021
  },
  {
    "name": "OPEN SPACE KALYAN NAGAR III YOUSUFGUDA (OPEN SPACES)",
    "lat": 17.4531793,
    "lng": 78.4206139
  },
  {
    "name": "OPEN SPACE KALYAN NAGAR III YOUSUFGUDA (OPEN SPACES)",
    "lat": 17.4517952,
    "lng": 78.4210345
  },
  {
    "name": "OPEN SPACE KALYAN NAGAR III YOUSUFGUDA (OPEN SPACES)",
    "lat": 17.4503102,
    "lng": 78.4214605
  },
  {
    "name": "OPEN SPACE KALYAN NAGAR III YOUSUFGUDA (OPEN SPACES)",
    "lat": 17.4503181,
    "lng": 78.4227997
  },
  {
    "name": "OPEN SPACE KALYAN NAGAR III YOUSUFGUDA (OPEN SPACES)",
    "lat": 17.4524941,
    "lng": 78.4226797
  },
  {
    "name": "RAJIV NAGAR  PARK, KALYAN NAGAR1, YOUSUFGUDA, E (PARKS)",
    "lat": 17.4473513,
    "lng": 78.4252306
  },
  {
    "name": "RAJIV NAGAR  PARK, KALYAN NAGAR1, YOUSUFGUDA, (PARKS)",
    "lat": 17.4485368,
    "lng": 78.4250559
  },
  {
    "name": "RAJIV NAGAR  PARK, KALYAN NAGAR1, YOUSUFGUDA, E (PARKS)",
    "lat": 17.4496666,
    "lng": 78.4249005
  },
  {
    "name": "GOUTHAMPURI MCH PARK, KALYANPURI, ERRAGADDA (PARKS)",
    "lat": 17.4536315,
    "lng": 78.4272442
  },
  {
    "name": "MCH PARK VIKAS PURI, KALYAN NAGAR 1, ERRAGADDA (PARKS)",
    "lat": 17.4503211,
    "lng": 78.4321187
  },
  {
    "name": "RAJEEV NAGAR PLAY GROUND (PLAY GROUNDS)",
    "lat": 17.447713,
    "lng": 78.4267621
  },
  {
    "name": "Don Bosco School Rikshaw Point (DUMPER BINS)",
    "lat": 17.454493,
    "lng": 78.4267227
  },
  {
    "name": "Fathima Nagar Community Hall (DUMPER BINS)",
    "lat": 17.4493422,
    "lng": 78.4263763
  },
  {
    "name": "Borabanda Syndicate Bank (DUMPER BINS)",
    "lat": 17.4537727,
    "lng": 78.4204753
  },
  {
    "name": "Fathima Nagar Community Hall (DUMPER BINS)",
    "lat": 17.4494105,
    "lng": 78.4261878
  },
  {
    "name": "Chest Hospital (DUMPER BINS)",
    "lat": 17.450384,
    "lng": 78.4269377
  },
  {
    "name": "Hanuman Temple (DUMPER BINS)",
    "lat": 17.4499537,
    "lng": 78.4280897
  },
  {
    "name": "Outside AG Colony Quarters (DUMPER BINS)",
    "lat": 17.449893,
    "lng": 78.4291088
  },
  {
    "name": "Sultan Nagar Rikshaw Point (DUMPER BINS)",
    "lat": 17.4541473,
    "lng": 78.4281967
  },
  {
    "name": "Vikaspuri Colony Water Tank Side (DUMPER BINS)",
    "lat": 17.4501612,
    "lng": 78.4317492
  },
  {
    "name": "B.Shankarlal Nagar Point (DUMPER BINS)",
    "lat": 17.4539242,
    "lng": 78.4292453
  },
  {
    "name": "Opp.Donbosco School (DUMPER BINS)",
    "lat": 17.4545327,
    "lng": 78.4252343
  },
  {
    "name": "Near Oxford School (DUMPER BINS)",
    "lat": 17.4506032,
    "lng": 78.431851
  },
  {
    "name": "Old Prem Nagar Transformer (DUMPER BINS)",
    "lat": 17.4572268,
    "lng": 78.4300218
  },
  {
    "name": "Church Hospital Erragadda Opp. Rythu Bazar (DUMPER BINS)",
    "lat": 17.4519382,
    "lng": 78.4359025
  },
  {
    "name": "T.B. Hospital Erragadda Road (DUMPER BINS)",
    "lat": 17.4484172,
    "lng": 78.4376015
  },
  {
    "name": "Rajiv Nagar Wines - 2nd Lift (DUMPER BINS)",
    "lat": 17.4509615,
    "lng": 78.4231748
  },
  {
    "name": "Near Church ,Prabath Nagar - 2nd Lift (DUMPER BINS)",
    "lat": 17.4538797,
    "lng": 78.4198522
  },
  {
    "name": "Kalyan Nagar ,Near MCH Park - 2nd Lift (DUMPER BINS)",
    "lat": 17.4527168,
    "lng": 78.4224942
  },
  {
    "name": "Borabanda Kunta - 2nd Lift (DUMPER BINS)",
    "lat": 17.4538228,
    "lng": 78.4195873
  },
  {
    "name": "Rythu Bazar ,Erragadda - I - 2nd Lift (DUMPER BINS)",
    "lat": 17.4538842,
    "lng": 78.4302045
  },
  {
    "name": "Chunniki Batthi -2nd lift (DUMPER BINS)",
    "lat": 17.4538297,
    "lng": 78.4302015
  },
  {
    "name": "Vishwakarma Nagar , Community Hall-2nd lift (DUMPER BINS)",
    "lat": 17.457166,
    "lng": 78.430159
  },
  {
    "name": "Meter Factory - 2nd lift (DUMPER BINS)",
    "lat": 17.4583428,
    "lng": 78.4304423
  },
  {
    "name": "Rythu Bazar ,Erragadda - 2nd Lift (DUMPER BINS)",
    "lat": 17.4538198,
    "lng": 78.4301383
  },
  {
    "name": "Rythu Bazar Erra Gadda-2nd lift (DUMPER BINS)",
    "lat": 17.4538075,
    "lng": 78.4301682
  },
  {
    "name": "Kalyan Nagar ,Near MCH Park - 1st Lift (DUMPER BINS)",
    "lat": 17.4524458,
    "lng": 78.4223852
  },
  {
    "name": "Rajiv Nagar Wines - 1st Lift (DUMPER BINS)",
    "lat": 17.4507937,
    "lng": 78.4231342
  },
  {
    "name": "Near Church Prabath Nagar - 1st Lift (DUMPER BINS)",
    "lat": 17.4538232,
    "lng": 78.4199863
  },
  {
    "name": "Borabanda Kunta - 1st Lift (DUMPER BINS)",
    "lat": 17.4538968,
    "lng": 78.4195857
  },
  {
    "name": "Chunni  Ki Batti - 1st Lift (DUMPER BINS)",
    "lat": 17.45389,
    "lng": 78.4301647
  },
  {
    "name": "Vishwakarma Nagar , Community Hall - 1st Lift (DUMPER BINS)",
    "lat": 17.4572125,
    "lng": 78.4300447
  },
  {
    "name": "Meter Factory - 1st Lift (DUMPER BINS)",
    "lat": 17.4571433,
    "lng": 78.4287508
  },
  {
    "name": "Rythu Bazar ,Erragadda - 1st Lift (DUMPER BINS)",
    "lat": 17.4538135,
    "lng": 78.4302068
  },
  {
    "name": "Rythu Bazar ,Erragadda - I - 1st Lift (DUMPER BINS)",
    "lat": 17.4538497,
    "lng": 78.4301328
  },
  {
    "name": "Rythu Bazar,Erragadda - 1st Lift (DUMPER BINS)",
    "lat": 17.4538665,
    "lng": 78.4301198
  },
  {
    "name": "KARMIKANAGAR X ROAD RAHAMATNAGAR (TOILETS)",
    "lat": 17.4436416,
    "lng": 78.4243251
  },
  {
    "name": "VINAYAKA NAGAR COMMUNITY HALL (COMMUNITY HALLS)",
    "lat": 17.4466076,
    "lng": 78.4159707
  },
  {
    "name": "SRI RAM NAGAR COMMUNITY HALL (COMMUNITY HALLS)",
    "lat": 17.4475246,
    "lng": 78.4219997
  },
  {
    "name": "NAVEEN NAGAR COMMUNITY HALL (COMMUNITY HALLS)",
    "lat": 17.4467367,
    "lng": 78.4151337
  },
  {
    "name": "KAMALA NAGAR COMMUNITY  HALL (COMMUNITY HALLS)",
    "lat": 17.4464573,
    "lng": 78.4127816
  },
  {
    "name": "ASHAIAH NAGAR COMMUNITY HALL (COMMUNITY HALLS)",
    "lat": 17.4460751,
    "lng": 78.4134803
  },
  {
    "name": "BAPUJI NAGAR COMMUNITY HALL (COMMUNITY HALLS)",
    "lat": 17.4464711,
    "lng": 78.4121101
  },
  {
    "name": "HABEEB FATIMA NAGAR COMMUNITY HALL (COMMUNITY HALLS)",
    "lat": 17.4492126,
    "lng": 78.4180011
  },
  {
    "name": "SANJAY NAGAR COMMUNITY  HALL (COMMUNITY HALLS)",
    "lat": 17.4486829,
    "lng": 78.4202565
  },
  {
    "name": "BRAMHA SHANKER TEMPLE COMMUNITY HALL (COMMUNITY HALLS)",
    "lat": 17.4451077,
    "lng": 78.4193247
  },
  {
    "name": "MAHATMA NAGAR COMMUNITY HALL (COMMUNITY HALLS)",
    "lat": 17.4471716,
    "lng": 78.4138339
  },
  {
    "name": "PRATHIBA NAGAR COMMUNITY HALL (COMMUNITY HALLS)",
    "lat": 17.4469448,
    "lng": 78.4133001
  },
  {
    "name": "BANGARU MAISAMMA COMMUNITY HALL (COMMUNITY HALLS)",
    "lat": 17.4423781,
    "lng": 78.4199072
  },
  {
    "name": "REHMATH NAGAR COMMUNITY HALL (COMMUNITY HALLS)",
    "lat": 17.4406125,
    "lng": 78.4214561
  },
  {
    "name": "OM NAGAR COMMUNITY HALL (COMMUNITY HALLS)",
    "lat": 17.4447171,
    "lng": 78.4173612
  },
  {
    "name": "KARMIKA NAGAR COMMUNITY HALL (COMMUNITY HALLS)",
    "lat": 17.4447818,
    "lng": 78.4218528
  },
  {
    "name": "SRI RAM NAGAR PARK (PARKS)",
    "lat": 17.4489609,
    "lng": 78.4228826
  },
  {
    "name": "Arogya Nagar - 2nd Lift (DUMPER BINS)",
    "lat": 17.4466665,
    "lng": 78.4119448
  },
  {
    "name": "Vinayak Nagar - 2nd Lift (DUMPER BINS)",
    "lat": 17.4470985,
    "lng": 78.4133115
  },
  {
    "name": "Habib Fathima Nagar - 2nd Lift (DUMPER BINS)",
    "lat": 17.4480075,
    "lng": 78.4164515
  },
  {
    "name": "Sriram Nagar Huts - I - 2nd Lift (DUMPER BINS)",
    "lat": 17.4460122,
    "lng": 78.4235237
  },
  {
    "name": "Sriram Nagar Huts - 2nd Lift (DUMPER BINS)",
    "lat": 17.4460743,
    "lng": 78.4234517
  },
  {
    "name": "Karmika Nagar Huts - I - 2nd Lift (DUMPER BINS)",
    "lat": 17.4444552,
    "lng": 78.423319
  },
  {
    "name": "Karmika Nagar Huts - 2nd Lift (DUMPER BINS)",
    "lat": 17.4444795,
    "lng": 78.4233198
  },
  {
    "name": "Vinayaka Nagar - 1st Lift (DUMPER BINS)",
    "lat": 17.4472313,
    "lng": 78.4130387
  },
  {
    "name": "Habib Fathima Nagar - 1st Lift (DUMPER BINS)",
    "lat": 17.4479165,
    "lng": 78.4164663
  },
  {
    "name": "Sriram Nagar Huts - I - 1st Lift (DUMPER BINS)",
    "lat": 17.4459527,
    "lng": 78.4235137
  },
  {
    "name": "Sriram Nagar Huts - 1st Lift (DUMPER BINS)",
    "lat": 17.4459143,
    "lng": 78.4234945
  },
  {
    "name": "Karmika Nagar Huts - I - 1st Lift (DUMPER BINS)",
    "lat": 17.4444432,
    "lng": 78.4233515
  },
  {
    "name": "Karmika Nagar Huts - 1st Lift (DUMPER BINS)",
    "lat": 17.444502,
    "lng": 78.4231843
  },
  {
    "name": "Indira Nagar (DUMPER BINS)",
    "lat": 17.449615,
    "lng": 78.4152418
  },
  {
    "name": "NAVABHARAT WELFARE ASSOCIATION (COMMUNITY HALLS)",
    "lat": 17.4490924,
    "lng": 78.4052327
  },
  {
    "name": "DR BR AMBEDKAR COMMUNITYHALL (COMMUNITY HALLS)",
    "lat": 17.4487238,
    "lng": 78.4052941
  },
  {
    "name": "BABASAILANI NAGAR COMMUNITYHALL (COMMUNITY HALLS)",
    "lat": 17.4498221,
    "lng": 78.411141
  },
  {
    "name": "BHARATH NAGAR COMMUNITYHALL (COMMUNITY HALLS)",
    "lat": 17.451332,
    "lng": 78.4136748
  },
  {
    "name": "SILPI NAGAR COMMUNITUHALL,ANGANWADI . (COMMUNITY HALLS)",
    "lat": 17.4476807,
    "lng": 78.406544
  },
  {
    "name": "SAID BABA NAGAR WEAKAR SECTION COMMUNITYHALL,ANGANWADI (COMMUNITY HALLS)",
    "lat": 17.4514128,
    "lng": 78.4088218
  },
  {
    "name": "BANJARA NAGAR COMMUNITY HALL (COMMUNITY HALLS)",
    "lat": 17.4549485,
    "lng": 78.4131937
  },
  {
    "name": "VINAYAKARAO RAO NAGAR COMMUNITYHALL (COMMUNITY HALLS)",
    "lat": 17.4538416,
    "lng": 78.415405
  },
  {
    "name": "DR BR AMBEDKAR, BABU JAGJEEVAN RAO& PJR COMMUNITYHALL (COMMUNITY HALLS)",
    "lat": 17.4540265,
    "lng": 78.4154776
  },
  {
    "name": "DR B R AMBEDKAR & PJR COMMUNITY HALL RAJ NAGAR (COMMUNITY HALLS)",
    "lat": 17.4521968,
    "lng": 78.4167771
  },
  {
    "name": "RAJEEV GANDHI NAGAR COMMUNITY HALL,ANGANWADI. (COMMUNITY HALLS)",
    "lat": 17.4471821,
    "lng": 78.4102886
  },
  {
    "name": "GHMC COMMUNITYHALL,T ANJAIAH NAGAR, ANGANWADI (COMMUNITY HALLS)",
    "lat": 17.4476476,
    "lng": 78.4113739
  },
  {
    "name": "GOVT SCHOOL,BORABANDA (COMMUNITY HALLS)",
    "lat": 17.4544102,
    "lng": 78.4114058
  },
  {
    "name": "OPEN SPACE, BORABANDA (OPEN SPACES)",
    "lat": 17.4538775,
    "lng": 78.4160939
  },
  {
    "name": "OPEN SPACE, NRR PURAM COLONY, SITE III (OPEN SPACES)",
    "lat": 17.448223,
    "lng": 78.410749
  },
  {
    "name": "OPEN SPACE 2, NRR PURAM COLONY, SITE II (OPEN SPACES)",
    "lat": 17.4532821,
    "lng": 78.4117834
  },
  {
    "name": "OPEN SPACE , NRR PURAM COLONY, SITE I (OPEN SPACES)",
    "lat": 17.4535753,
    "lng": 78.4111851
  },
  {
    "name": "OPEN SPACE, SRT NAGAR (OPEN SPACES)",
    "lat": 17.4531909,
    "lng": 78.4137403
  },
  {
    "name": "Peeli Darga - 2nd Lift (DUMPER BINS)",
    "lat": 17.4521482,
    "lng": 78.4092647
  },
  {
    "name": "MCH Play Ground Peddamma Nagar - 2nd Lift (DUMPER BINS)",
    "lat": 17.448145,
    "lng": 78.4104618
  },
  {
    "name": "Septik Tank, NRR Puram - 2nd Lift (DUMPER BINS)",
    "lat": 17.4506213,
    "lng": 78.4055845
  },
  {
    "name": "Borabanda Panka - 3rd Lift (DUMPER BINS)",
    "lat": 17.4536912,
    "lng": 78.4155197
  },
  {
    "name": "Govt Hostel - 2nd Lift (DUMPER BINS)",
    "lat": 17.447552,
    "lng": 78.4117772
  },
  {
    "name": "Rajiv Gandhi Nagar - 2nd Lift (DUMPER BINS)",
    "lat": 17.447271,
    "lng": 78.4109835
  },
  {
    "name": "MCH Play Ground,Peddamma Nagar - 1st Lift (DUMPER BINS)",
    "lat": 17.4480738,
    "lng": 78.4105195
  },
  {
    "name": "Boranada Panka - 2nd lift - 1st Lift (DUMPER BINS)",
    "lat": 17.4537213,
    "lng": 78.415482
  },
  {
    "name": "Septik Tank, NRR Puram - 1st Lift (DUMPER BINS)",
    "lat": 17.4506055,
    "lng": 78.405555
  },
  {
    "name": "Rajiv Gandhi Nagar - 1st Lift (DUMPER BINS)",
    "lat": 17.4473128,
    "lng": 78.4110348
  },
  {
    "name": "Bala Jyothi School,NRR Puram (DUMPER BINS)",
    "lat": 17.4477503,
    "lng": 78.406384
  },
  {
    "name": "Jyothi School,Peddamma Nagar (DUMPER BINS)",
    "lat": 17.4476698,
    "lng": 78.4063968
  },
  {
    "name": "Peeli Darga - 1st Lift (DUMPER BINS)",
    "lat": 17.4520137,
    "lng": 78.4091317
  },
  {
    "name": "Borabanda Panka - 1st Lift (DUMPER BINS)",
    "lat": 17.4536345,
    "lng": 78.4152892
  },
  {
    "name": "Arogya Nagar - 1st Lift (DUMPER BINS)",
    "lat": 17.446626,
    "lng": 78.4117663
  },
  {
    "name": "Govt.Hostel - 1st Lift (DUMPER BINS)",
    "lat": 17.4474597,
    "lng": 78.4115483
  },
  {
    "name": "DEMART DURGAM CHERVU ROAD MADHAPUR (TOILETS)",
    "lat": 17.4379854,
    "lng": 78.3951219
  },
  {
    "name": "BESIDE SHOP NO .6-15.NEAR KADHLI VACHINA KANAKA DURGA BAR & RESTURANT . RAIDARAGHA MAIN ROAD , (TOILETS)",
    "lat": 17.4131107,
    "lng": 78.3949979
  },
  {
    "name": "DAYANAND AUTO SERVICES ,BHARATH PETROLEBPUMP ,OPP.JRC CONVENTION CENTER , FILMNAGARROAD , NEAR WHISPERVALLY X ROAD , RAIDARAGHA, SERILINGAMPALLY (TOILETS)",
    "lat": 17.4142078,
    "lng": 78.3946342
  },
  {
    "name": "INDIAN OIL PETROL PUMP MADHAPUR MAIN ROAD (TOILETS)",
    "lat": 17.4407085,
    "lng": 78.3913694
  },
  {
    "name": "HOTEL ABHIRUCHI,KALYAN NAGAR ROAD NEAR NECTAR GARDEN (TOILETS)",
    "lat": 17.4377662,
    "lng": 78.3901411
  },
  {
    "name": "INORBIT MALL MADHAPUR (TOILETS)",
    "lat": 17.4336713,
    "lng": 78.3864172
  },
  {
    "name": "SHE TOILETS AT GATE NO 1 SHILPAKALAVEDIKA OPPOSITE TO CHUTNEYS HOTEL (TOILETS)",
    "lat": 17.4521499,
    "lng": 78.3802728
  },
  {
    "name": "MATHRUSRI TIFFIENS NEAR JUBLIEE ENCLAVE ARCH OPPOSITE TO HITEX EXHIBITION CENTER ARCH SHILPARAMAM ROAD TOWARDS KOTHAGUDA (TOILETS)",
    "lat": 17.4561346,
    "lng": 78.3769883
  },
  {
    "name": "HP PETROL PUMP BESIDE GACHIBOWLI FLYOVER (TOILETS)",
    "lat": 17.4376583,
    "lng": 78.3655014
  },
  {
    "name": "HP PETROL PUMP 8TH BATTALION POLICE CAMP ROAD KONDAPUR (TOILETS)",
    "lat": 17.4650042,
    "lng": 78.36476
  },
  {
    "name": "8TH BATTALION POLICE CAMP KONDAPUR (TOILETS)",
    "lat": 17.4653905,
    "lng": 78.3639264
  },
  {
    "name": "F5 FOOD COURT KOTHAGUDA TO GACHIBOWLI MAIN ROAD OPPOSITE TO SLN TERMINUS BUILDING (TOILETS)",
    "lat": 17.4529723,
    "lng": 78.3639075
  },
  {
    "name": "RAIDARGA PANMAKTHA AGADI BAZAR COMMUNITY HALL (COMMUNITY HALLS)",
    "lat": 17.4157854,
    "lng": 78.3935678
  },
  {
    "name": "ANJAIAHNAGAR COMMUNITY HALL & WARD OFFICE (COMMUNITY HALLS)",
    "lat": 17.4514669,
    "lng": 78.3657987
  },
  {
    "name": "MADHAPUR COMMUNITY HALL (COMMUNITY HALLS)",
    "lat": 17.44459,
    "lng": 78.3859667
  },
  {
    "name": "KOTHAGUDA MAIN COMMUNITY HALL (COMMUNITY HALLS)",
    "lat": 17.4588935,
    "lng": 78.3650928
  },
  {
    "name": "KOTHAGUDA CHERUV COMMUNITY HALL (COMMUNITY HALLS)",
    "lat": 17.4600414,
    "lng": 78.3648572
  },
  {
    "name": "PREMNAGAR COMMUNITY HALL (COMMUNITY HALLS)",
    "lat": 17.4791334,
    "lng": 78.3572596
  },
  {
    "name": "OPEN SPACE,PRASHASAN NAGAR (OPEN SPACES)",
    "lat": 17.4219679,
    "lng": 78.397908
  },
  {
    "name": "OPEN SPACE,ROAD NO 44 (OPEN SPACES)",
    "lat": 17.4354252,
    "lng": 78.3977124
  },
  {
    "name": "KONDAPUR POLICE COLONY ZPHS SCHOOL (OPEN SPACES)",
    "lat": 17.4615786,
    "lng": 78.3628976
  },
  {
    "name": "KONDAPUR POLICE COLONY PRIMARY SCHOOL (OPEN SPACES)",
    "lat": 17.4620347,
    "lng": 78.3630589
  },
  {
    "name": "MADHAPUR VILLAGE OPEN SPACE (OPEN SPACES)",
    "lat": 17.4379059,
    "lng": 78.3932603
  },
  {
    "name": "DURGAM CHERUVU WATER TANK (OPEN SPACES)",
    "lat": 17.4349046,
    "lng": 78.3929597
  },
  {
    "name": "MADHAPUR MALLANA TEMPLE (OPEN SPACES)",
    "lat": 17.438289,
    "lng": 78.3945408
  },
  {
    "name": "GAFOOR NAGAR OPEN SPACE (OPEN SPACES)",
    "lat": 17.4395379,
    "lng": 78.3861509
  },
  {
    "name": "GAFOOR NAGAR OPEN SPACE (OPEN SPACES)",
    "lat": 17.4388901,
    "lng": 78.3850924
  },
  {
    "name": "GAFOOR NAGAR OPEN SPACE (OPEN SPACES)",
    "lat": 17.4392265,
    "lng": 78.3831261
  },
  {
    "name": "GAFOOR NAGAR OPEN SPACE (OPEN SPACES)",
    "lat": 17.4387849,
    "lng": 78.3828235
  },
  {
    "name": "GAFOOR NAGAR OPEN SPACE (OPEN SPACES)",
    "lat": 17.4416201,
    "lng": 78.3821296
  },
  {
    "name": "GAFOOR NAGAR OPEN SPACE (OPEN SPACES)",
    "lat": 17.4406433,
    "lng": 78.3816016
  },
  {
    "name": "ANJAIAH NAGAR OPEN SPACE (OPEN SPACES)",
    "lat": 17.4518378,
    "lng": 78.3647201
  },
  {
    "name": "ROLLING HILLS  OPEN SPACE (OPEN SPACES)",
    "lat": 17.4456033,
    "lng": 78.367002
  },
  {
    "name": "RADHEY NAGAR OPEN SPACE (OPEN SPACES)",
    "lat": 17.4156713,
    "lng": 78.3939549
  },
  {
    "name": "RADHEY NAGAR OPEN SPACE (OPEN SPACES)",
    "lat": 17.4170194,
    "lng": 78.3921476
  },
  {
    "name": "CAMLOT COLONY OPEN SPACE (OPEN SPACES)",
    "lat": 17.4658101,
    "lng": 78.3490575
  },
  {
    "name": "KOTHAGUDA TAX COLLECTION C.HALL (OPEN SPACES)",
    "lat": 17.4625211,
    "lng": 78.3646661
  },
  {
    "name": "CAMLOT COLONY PARK (PARKS)",
    "lat": 17.4656722,
    "lng": 78.3501039
  },
  {
    "name": "GUTTALA BEGUMPET PARK (PARKS)",
    "lat": 17.4356267,
    "lng": 78.3969921
  },
  {
    "name": "NEAR NECTAR GARDENS PARK (PARKS)",
    "lat": 17.4383401,
    "lng": 78.3891094
  },
  {
    "name": "GAFOOR NAGAR PARK (PARKS)",
    "lat": 17.4391351,
    "lng": 78.3858474
  },
  {
    "name": "VITTAL RAO NAGAR PARK (PARKS)",
    "lat": 17.4443576,
    "lng": 78.3850616
  },
  {
    "name": "VITTAL RAO NAGAR PARK (PARKS)",
    "lat": 17.4437055,
    "lng": 78.3858245
  },
  {
    "name": "JUBILEE ENCLAVE PARK (PARKS)",
    "lat": 17.4560745,
    "lng": 78.3732196
  },
  {
    "name": "ROLLING HILLS PARK (PARKS)",
    "lat": 17.4479429,
    "lng": 78.366804
  },
  {
    "name": "MASTHAN NAGAR PARK (PARKS)",
    "lat": 17.4327985,
    "lng": 78.3985768
  },
  {
    "name": "MASTHAN NAGAR PARK (PARKS)",
    "lat": 17.4330094,
    "lng": 78.3983215
  },
  {
    "name": "ROLLING HILLS PLAY GROUND (PLAY GROUNDS)",
    "lat": 17.448007,
    "lng": 78.3663705
  },
  {
    "name": "AP 8th Bettalian Camp-I (DUMPER BINS)",
    "lat": 17.463626,
    "lng": 78.3594455
  },
  {
    "name": "Cherac Public School (DUMPER BINS)",
    "lat": 17.463935,
    "lng": 78.3514942
  },
  {
    "name": "Area Hospital, Kondapur (DUMPER BINS)",
    "lat": 17.463367,
    "lng": 78.35312
  },
  {
    "name": "Community Hall & Siddiqnagar (DUMPER BINS)",
    "lat": 17.4503493,
    "lng": 78.367676
  },
  {
    "name": "Siddiqnagar (DUMPER BINS)",
    "lat": 17.4512315,
    "lng": 78.3684083
  },
  {
    "name": "Anjaiahnagar (DUMPER BINS)",
    "lat": 17.4511868,
    "lng": 78.3684578
  },
  {
    "name": "Durgamcheruvu (DUMPER BINS)",
    "lat": 17.4373618,
    "lng": 78.3930727
  },
  {
    "name": "Madhapur (DUMPER BINS)",
    "lat": 17.4447397,
    "lng": 78.3831125
  },
  {
    "name": "Kondapur (DUMPER BINS)",
    "lat": 17.4663432,
    "lng": 78.364451
  },
  {
    "name": "RAIDARAGHA WARD OFFICE ,RAIDARAGHA VILLAGE,SERILINGAMPLLYMANDAL, HYDERABAD (TOILETS)",
    "lat": 17.4132751,
    "lng": 78.3921753
  },
  {
    "name": "LALITHA FUELPOINT ,NEAR MALAKAM CHERUVU,OPPISTE LIDCAP,RAIDURGHA ,SERILINGAMPALLY (TOILETS)",
    "lat": 17.4178434,
    "lng": 78.3882729
  },
  {
    "name": "DINESH FUEL STATION .H.P.PETROLBUNK,NEAR WELLSFARGO, GACHIBOWLIROAD, SERILINGAMPALLY , HYDERABAD (TOILETS)",
    "lat": 17.4242207,
    "lng": 78.3791275
  },
  {
    "name": "NEAR CYBERABAD POLICE COMMISENARATE, TELCOMNAGAR, GACHIBOWLIROAD,SERILINGAMPALLY (TOILETS)",
    "lat": 17.4324221,
    "lng": 78.370239
  },
  {
    "name": "L FUELS SURVEY .NO 104(P) H.P PETROLBUNK, BESIDE RAOS SCHOOL , SERILINGAMPALLY , HYDERABAD (TOILETS)",
    "lat": 17.4787992,
    "lng": 78.3193722
  },
  {
    "name": "AVANISH FUEL STATION , INDIANOIL PETROLBUNK ,NEAR NALAGANDALLA FLYOVER,SERILINGAMPALLY ,HYDERABAD, (TOILETS)",
    "lat": 17.4792061,
    "lng": 78.3185802
  },
  {
    "name": "DWARAKAMAI FUELS , H.P PETROLBUNK, BESIDEVETERINARYDISPENSARY , SERILINGAMPALLY HYDERABAD (TOILETS)",
    "lat": 17.4793903,
    "lng": 78.3155945
  },
  {
    "name": "SAISRIPRAKASH FILLING STATION, INDIAN PETROLBUNK, NEAR NAGALAGANDALAX ROADS , NALAGANDALA, SERILINGAMPALLY (TOILETS)",
    "lat": 17.4769371,
    "lng": 78.3091837
  },
  {
    "name": "RAIDARGA SC BUDAGAJANGAM COMMUNITY HALL BONUNDARY NEED TO CONFORM WITH CIRCLE OFFICE (COMMUNITY HALLS)",
    "lat": 17.4147348,
    "lng": 78.3891069
  },
  {
    "name": "TELICOMNAGAR COMMUNITY HALL (COMMUNITY HALLS)",
    "lat": 17.4315006,
    "lng": 78.3680607
  },
  {
    "name": "GOPANPALLY VILLAGE COMMUNITY HALL (COMMUNITY HALLS)",
    "lat": 17.4524622,
    "lng": 78.3065297
  },
  {
    "name": "MADHURANAGAR COMMUNITY HALL (COMMUNITY HALLS)",
    "lat": 17.4221663,
    "lng": 78.3791299
  },
  {
    "name": "KHAJAGUDA COMMUNITY HALL ANGANWADI (COMMUNITY HALLS)",
    "lat": 17.4192394,
    "lng": 78.3685536
  },
  {
    "name": "NANAKRAM GUDA COMMUNITY HALL (COMMUNITY HALLS)",
    "lat": 17.4174638,
    "lng": 78.3520857
  },
  {
    "name": "NANAKRAM GUDA-2 COMMUNITY HALL (COMMUNITY HALLS)",
    "lat": 17.4204953,
    "lng": 78.346778
  },
  {
    "name": "GOWLIDODDI-2 MAHILA BHAVAN (COMMUNITY HALLS)",
    "lat": 17.4314449,
    "lng": 78.3232186
  },
  {
    "name": "MAHILA BHAVAN,Q CITY ROAD,GACHIBOWLI (COMMUNITY HALLS)",
    "lat": 17.4290543,
    "lng": 78.3262245
  },
  {
    "name": "GOPANPALLY COMMUNITY HALL (COMMUNITY HALLS)",
    "lat": 17.4457091,
    "lng": 78.3050224
  },
  {
    "name": "GOPANPALLY THANDA MAHILA BHAVAN (COMMUNITY HALLS)",
    "lat": 17.4522257,
    "lng": 78.3097085
  },
  {
    "name": "NALLAGANDLA COMMUNITY HALL NIGHT SHELTER USING AS GOUDOWN (COMMUNITY HALLS)",
    "lat": 17.4745499,
    "lng": 78.3094476
  },
  {
    "name": "NETHAJI COMMUNITY HALL,KOMATIKUNTA,NALLAGANDLA (COMMUNITY HALLS)",
    "lat": 17.4762224,
    "lng": 78.3111581
  },
  {
    "name": "GULMOHAR COMMUNITY HALL (COMMUNITY HALLS)",
    "lat": 17.4753087,
    "lng": 78.320128
  },
  {
    "name": "NETHAJI NAGAR COMMUNITY HALL ANGANWADI (COMMUNITY HALLS)",
    "lat": 17.4750962,
    "lng": 78.3173134
  },
  {
    "name": "COMMUNITY HALL MATILDA BHAVAN,LAKSHMI VIHAR PHASE 1,SERILINGAMPALLY (COMMUNITY HALLS)",
    "lat": 17.4791719,
    "lng": 78.3061748
  },
  {
    "name": "LAXMI ENCLAVE COMMUNITY HALL (COMMUNITY HALLS)",
    "lat": 17.4422913,
    "lng": 78.3541416
  },
  {
    "name": "BHARATHANATIYAM YOUVAJANASANGAM COMMUNITY HALL (COMMUNITY HALLS)",
    "lat": 17.4129716,
    "lng": 78.3911458
  },
  {
    "name": "RAIDARGA ENDLA BASTHI-I COMMUNITY HALL (COMMUNITY HALLS)",
    "lat": 17.4149918,
    "lng": 78.3909841
  },
  {
    "name": "RAIDARGA LIBARARY & MT SANGAM (COMMUNITY HALLS)",
    "lat": 17.4125482,
    "lng": 78.3926311
  },
  {
    "name": "RAIDARGA KATTELABASTI MAHILA MANDALI (COMMUNITY HALLS)",
    "lat": 17.4114569,
    "lng": 78.3926571
  },
  {
    "name": "RAIDARGA KATTALA BASTHI C.HALL (COMMUNITY HALLS)",
    "lat": 17.4110579,
    "lng": 78.3918033
  },
  {
    "name": "RAIDARGA BABU JAG JEEVAN RAM YUVAJANA SANGAM COMMUNITY HALL (COMMUNITY HALLS)",
    "lat": 17.4130953,
    "lng": 78.3906781
  },
  {
    "name": "RAIDARGA KUMMARABASTI COMMUNITY HALL (COMMUNITY HALLS)",
    "lat": 17.4139446,
    "lng": 78.3905993
  },
  {
    "name": "RAIDARGA AMBEDKAR SAMUHIKA BHAVANAM COMMUNITY HALL (COMMUNITY HALLS)",
    "lat": 17.4148714,
    "lng": 78.3897064
  },
  {
    "name": "RAIDARGA DR.B.R.AMBEDKAR C.HALL COMMUNITY HALL (COMMUNITY HALLS)",
    "lat": 17.4145701,
    "lng": 78.3897691
  },
  {
    "name": "RAIDARGA ENDLABASTI YOUTH ASSOCIATION COMMUNITY HALL (COMMUNITY HALLS)",
    "lat": 17.4152715,
    "lng": 78.3907564
  },
  {
    "name": "HUDA LAYOUT-12 NURSURY (OPEN SPACES)",
    "lat": 17.4662659,
    "lng": 78.3083614
  },
  {
    "name": "GHMC OPEN SPACE, BEHIND OAKRIDGE INTERNATIONAL SCHOOL,KHAJAGUDA (OPEN SPACES)",
    "lat": 17.4210751,
    "lng": 78.3628961
  },
  {
    "name": "DOCTORS COLONY OPEN SPACE (OPEN SPACES)",
    "lat": 17.4790165,
    "lng": 78.3166231
  },
  {
    "name": "VINAYAK NAGAR OPEN SPACE (OPEN SPACES)",
    "lat": 17.4419516,
    "lng": 78.35607
  },
  {
    "name": "NANAK RAM GUDA OPEN SPACE (OPEN SPACES)",
    "lat": 17.4170374,
    "lng": 78.3658005
  },
  {
    "name": "RAIDURGA OPEN SPACE OPP.SERLINGAMPALLY WARD OFFICE (OPEN SPACES)",
    "lat": 17.41362,
    "lng": 78.3924833
  },
  {
    "name": "HUDA LAYOUT-1 OPENSPACE,DEFENCE COLONY,NALLAGANDLA (OPEN SPACES)",
    "lat": 17.4781435,
    "lng": 78.303459
  },
  {
    "name": "HUDA LAYOUT-2 OPENSPACE,NALLAGANDLA (OPEN SPACES)",
    "lat": 17.4745966,
    "lng": 78.3015311
  },
  {
    "name": "HUDA LAYOUT-3 OPENSPACE,AKSHAJ AVENUE ROAD,NALLAGANDLA (OPEN SPACES)",
    "lat": 17.4754196,
    "lng": 78.3041066
  },
  {
    "name": "HUDA LAYOUT-4 OPENSAPCE,NALLAGANDLA (OPEN SPACES)",
    "lat": 17.4709869,
    "lng": 78.3015911
  },
  {
    "name": "HUDA LAYOUT-5 (DUMBPING YARD) OPENSAPCE,NALLAGANDLA (OPEN SPACES)",
    "lat": 17.4707262,
    "lng": 78.3031276
  },
  {
    "name": "NALAGANDLA RESIDENTIAL COMPLEX-6 OPEN SPACE (OPEN SPACES)",
    "lat": 17.4716332,
    "lng": 78.3036039
  },
  {
    "name": "HUDA LAYOUT-7,AKSHAJ AVENUE 1ST STREET,NALAGANDLA (OPEN SPACES)",
    "lat": 17.470778,
    "lng": 78.3038434
  },
  {
    "name": "HUDA LAYOUT-8 OPENSAPCE,ROCK GARDEN BACKSIDE,NALLAGANDLA (OPEN SPACES)",
    "lat": 17.4652062,
    "lng": 78.3020234
  },
  {
    "name": "HUDA LAYOUT-10 OPENSAPCE,AKSHAJ AVENUE ROAD,NALLAGANDLA (OPEN SPACES)",
    "lat": 17.4662023,
    "lng": 78.3060392
  },
  {
    "name": "HUDA LAYOUT-11 OPENSAPCE OPP.LAKSHMI CRESANT APARTMENT,NALLAGANDLA (OPEN SPACES)",
    "lat": 17.4640928,
    "lng": 78.3067377
  },
  {
    "name": "HUDA LAYOUT-13 OPEN SPACE,NEAR ANANDA MONTESSORI HOUSE OF CHILDREN,NALLAGANDLA, (OPEN SPACES)",
    "lat": 17.468803,
    "lng": 78.3084639
  },
  {
    "name": "HUDA LAYOUT-15 OPEN SPACE BESIDE MITHILA VIHAR APARTMENTS, NALLAGANDLA, (OPEN SPACES)",
    "lat": 17.4764493,
    "lng": 78.3076795
  },
  {
    "name": "HUDA LAYOUT-16 DR.BR AMBEDKAR OPEN SPACE,NALLAGANDLA (OPEN SPACES)",
    "lat": 17.4778702,
    "lng": 78.3086523
  },
  {
    "name": "HUDA LAYOUT-17 OPENSAPCE,NALLAGANDLA, GOPANAPALLI (OPEN SPACES)",
    "lat": 17.4616452,
    "lng": 78.3018478
  },
  {
    "name": "HUDA LAYOUT-18 OPENSAPCE,JYOTHI RAO PULE COLONY, NALLAGANDLA, TELLAPUR (OPEN SPACES)",
    "lat": 17.4599784,
    "lng": 78.3013988
  },
  {
    "name": "HUDA LAYOUT-19 OPENSAPCE,NEAR R.C. CYBER HOMES,NALLAGANDLA (OPEN SPACES)",
    "lat": 17.4595052,
    "lng": 78.3033637
  },
  {
    "name": "HUDA LAYOUT-20 OPENSAPCE,RAMKY ONE KOSMOS ROAD,NALLAGANDLA, GOPANPALLI, (OPEN SPACES)",
    "lat": 17.4615803,
    "lng": 78.3030722
  },
  {
    "name": "GHMC OPENSPACE BESIDE RAMKY ONE KOSMOS,NALAGANDLA (OPEN SPACES)",
    "lat": 17.4622137,
    "lng": 78.3030576
  },
  {
    "name": "OPENSPACE BEHIND ALIENS VALLEY, DIAMOND HEIGHTS ROAD,NALAGANDLA (OPEN SPACES)",
    "lat": 17.455887,
    "lng": 78.3037224
  },
  {
    "name": "GHMC OPEN SPACE NEAR MANJEERA PURPLE TOWN VILLAS,GOPANAPALLY,NALAGANDLA (OPEN SPACES)",
    "lat": 17.4544272,
    "lng": 78.3033166
  },
  {
    "name": "GHMC OPEN SPACE NEAR MANJEERA DIAMOND TOWERS,GOPANAPALLY,NALAGANDLA_1 (OPEN SPACES)",
    "lat": 17.4553328,
    "lng": 78.3023129
  },
  {
    "name": "OPEN SPACE,NALLAGANDLA ROAD,SERILINGAMPALLY (OPEN SPACES)",
    "lat": 17.4740993,
    "lng": 78.3090793
  },
  {
    "name": "GHMC OPEN SPACE-3,OPP. MANJEERA DIAMOND TOWERS,NALLAGANDLA (OPEN SPACES)",
    "lat": 17.4562162,
    "lng": 78.3022251
  },
  {
    "name": "GHMC OPEN SPACE,SERINITY DIAMOND APT, DIAMOND HEIGHTS RD, NALLAGANDLA (OPEN SPACES)",
    "lat": 17.4587448,
    "lng": 78.3017401
  },
  {
    "name": "GHMC OPEN SPACE_2,BESIDE MANJEERA DIAMOND TOWERS,NALLAGANDLA (OPEN SPACES)",
    "lat": 17.4565363,
    "lng": 78.3015731
  },
  {
    "name": "GHMC OPEN SPACE_1,BESIDE MANJEERA DIAMOND TOWERS,NALLAGANDLA (OPEN SPACES)",
    "lat": 17.4567249,
    "lng": 78.3007715
  },
  {
    "name": "WALKERS PARK,JAYABHERI PINE VALLEY, GACHIBOWLI (PARKS)",
    "lat": 17.4290446,
    "lng": 78.3694547
  },
  {
    "name": "JAYABHERI PINE VALLEY PARK (PARKS)",
    "lat": 17.4294448,
    "lng": 78.3701902
  },
  {
    "name": "TELECOM NAGAR PARK-3 (PARKS)",
    "lat": 17.4323827,
    "lng": 78.3669399
  },
  {
    "name": "LAXMI ENCLAVE PARK (PARKS)",
    "lat": 17.4425934,
    "lng": 78.3542307
  },
  {
    "name": "VINAYAK NAGAR PARK,BESIDE PARADISE HOTEL,GACHIBOWLI MAIN ROAD (PARKS)",
    "lat": 17.4423229,
    "lng": 78.3561991
  },
  {
    "name": "TELECOM NAGAR PARK-1 (PARKS)",
    "lat": 17.4344027,
    "lng": 78.366164
  },
  {
    "name": "TELECOM NAGAR PARK-2 (PARKS)",
    "lat": 17.4330917,
    "lng": 78.3647992
  },
  {
    "name": "GULMOHAR PARK (PARKS)",
    "lat": 17.4734616,
    "lng": 78.3188757
  },
  {
    "name": "LAXMI VIHAR-1 PARK (PARKS)",
    "lat": 17.4807531,
    "lng": 78.309082
  },
  {
    "name": "LAXMI VIHAR-3 PARK (PARKS)",
    "lat": 17.4777361,
    "lng": 78.3051095
  },
  {
    "name": "HUDA LAYOUT-9  TREE PARK (PARKS)",
    "lat": 17.4655541,
    "lng": 78.3041051
  },
  {
    "name": "HUDA LAYOUT-14 PARK (PARKS)",
    "lat": 17.4731544,
    "lng": 78.3077839
  },
  {
    "name": "Telecomnagar (DUMPER BINS)",
    "lat": 17.4304732,
    "lng": 78.362546
  },
  {
    "name": "Durga (DUMPER BINS)",
    "lat": 17.4134927,
    "lng": 78.3923052
  },
  {
    "name": "ANJAIAH NAGAR CHOWRASTHA, KOTHAGUDA TO GACHIBOWLI MAIN ROAD OPPOSITE SLN TERMINUS (TOILETS)",
    "lat": 17.4521314,
    "lng": 78.3636611
  },
  {
    "name": "B1, S L N TERMINUS, SHOPPING COMPLEX, OPP. ANJAIAH NAGAR CHOWRASTA, BEHIND BOTANICAL GARDEN, KOTHAGUDA MAIN ROAD, GACHIBOWLI, HYDERABAD. (TOILETS)",
    "lat": 17.4523394,
    "lng": 78.3629347
  },
  {
    "name": "BEHIND UDIPI UPAHAR HOTEL, NEAR GACHIBOWLI FLYOVER, GACHIBOWLI MAIN ROAD HYDERABAD (TOILETS)",
    "lat": 17.440668,
    "lng": 78.3610135
  },
  {
    "name": "H.P PETROL BUNK OPP. PARADISE HOTEL GACHIBOWLI MAIN ROAD HYD (TOILETS)",
    "lat": 17.442987,
    "lng": 78.3569703
  },
  {
    "name": "LINGAMPALLY VEGITABLE MARKET  BHEL ROAD (TOILETS)",
    "lat": 17.4915621,
    "lng": 78.3149181
  },
  {
    "name": "TARANAGAR MAHILAMANDALI (COMMUNITY HALLS)",
    "lat": 17.4909661,
    "lng": 78.3159601
  },
  {
    "name": "GACHIBOWLI VILLAGE COMMUNITY HALL (COMMUNITY HALLS)",
    "lat": 17.4430022,
    "lng": 78.3616474
  },
  {
    "name": "MASEEDBANDA COMMUNITY HALL (COMMUNITY HALLS)",
    "lat": 17.4652303,
    "lng": 78.3420143
  },
  {
    "name": "SURABHICOLONY COMMUNITY HALL (COMMUNITY HALLS)",
    "lat": 17.4861087,
    "lng": 78.3259175
  },
  {
    "name": "LINGAMPALLY COMMUNITY HALL (COMMUNITY HALLS)",
    "lat": 17.4836892,
    "lng": 78.3206058
  },
  {
    "name": "NEHRUNAGAR COMMUNITY HALL&SCHOOL (COMMUNITY HALLS)",
    "lat": 17.4826444,
    "lng": 78.3249273
  },
  {
    "name": "BAPUNAGAR COMMUNITY HALL (COMMUNITY HALLS)",
    "lat": 17.4790657,
    "lng": 78.3202764
  },
  {
    "name": "DOYANS COLONY COMMUNITY HALL (COMMUNITY HALLS)",
    "lat": 17.4739665,
    "lng": 78.3282846
  },
  {
    "name": "TARANAGAR COMMUNITY HALL (COMMUNITY HALLS)",
    "lat": 17.4904855,
    "lng": 78.3170044
  },
  {
    "name": "TARANAGAR COMMUNITYHALL (COMMUNITY HALLS)",
    "lat": 17.4906021,
    "lng": 78.3170456
  },
  {
    "name": "LINGAMPALLY VILLAGE COMMUNITY HALL (COMMUNITY HALLS)",
    "lat": 17.4862742,
    "lng": 78.3172564
  },
  {
    "name": "GOPINAGAR COMMUNITY HALL (COMMUNITY HALLS)",
    "lat": 17.4795354,
    "lng": 78.3240682
  },
  {
    "name": "MASEEDBANDA SC COMMUNITY HALL (COMMUNITY HALLS)",
    "lat": 17.4661795,
    "lng": 78.3430126
  },
  {
    "name": "HOUSING BOARD-3-WATER TANK (OPEN SPACES)",
    "lat": 17.4494947,
    "lng": 78.3576501
  },
  {
    "name": "DOYENS COLONY  TEMPLE (OPEN SPACES)",
    "lat": 17.4761267,
    "lng": 78.3275782
  },
  {
    "name": "KANAKA DURGA CHERUVU-TEMPLE-WATERBODY (OPEN SPACES)",
    "lat": 17.4445275,
    "lng": 78.3581738
  },
  {
    "name": "OPEN SPACE VASANTHA ESTATES (OPEN SPACES)",
    "lat": 17.4851854,
    "lng": 78.3331634
  },
  {
    "name": "OPEN SPACE VASANTHA ESTATES (OPEN SPACES)",
    "lat": 17.4823789,
    "lng": 78.3370273
  },
  {
    "name": "OPEN SPACE VASANTHA ESTATES (OPEN SPACES)",
    "lat": 17.48244,
    "lng": 78.33616
  },
  {
    "name": "OPEN SPACE RAIL VIHAR (OPEN SPACES)",
    "lat": 17.4830608,
    "lng": 78.313058
  },
  {
    "name": "OPEN SPACE RAIL VIHAR (OPEN SPACES)",
    "lat": 17.4829279,
    "lng": 78.3120252
  },
  {
    "name": "DOYENS COLONY OPEN SPACE (OPEN SPACES)",
    "lat": 17.4741262,
    "lng": 78.3292079
  },
  {
    "name": "VASANTHA ESTATES OPEN SPACE-9 (NO COMPOUND WALL) (OPEN SPACES)",
    "lat": 17.480797,
    "lng": 78.3481701
  },
  {
    "name": "VASANTHA ESTATES OPEN SPACE (OPEN SPACES)",
    "lat": 17.4826863,
    "lng": 78.347819
  },
  {
    "name": "DOYENS COLONY OPEN SPACE (OPEN SPACES)",
    "lat": 17.4722315,
    "lng": 78.3295426
  },
  {
    "name": "RAIL VIHAR WELFARE ASSOCIATION OPEN SPACE (OPEN SPACES)",
    "lat": 17.4828179,
    "lng": 78.3115999
  },
  {
    "name": "RAIL VIHAR OPEN SPACE (OPEN SPACES)",
    "lat": 17.4840165,
    "lng": 78.3129179
  },
  {
    "name": "NALLAGANDLA OPEN SPACE (OPEN SPACES)",
    "lat": 17.4896858,
    "lng": 78.3149745
  },
  {
    "name": "RAVI COLONY  OPEN SPACE (OPEN SPACES)",
    "lat": 17.4728362,
    "lng": 78.3362994
  },
  {
    "name": "RAVI COLONY OPEN SPACE (OPEN SPACES)",
    "lat": 17.4728673,
    "lng": 78.3369588
  },
  {
    "name": "VASANTHA ESTATES OPEN SPACE (OPEN SPACES)",
    "lat": 17.4819624,
    "lng": 78.3393613
  },
  {
    "name": "VASANTHA ESTATES OPEN SPACE (OPEN SPACES)",
    "lat": 17.4821704,
    "lng": 78.3414677
  },
  {
    "name": "VASANTHA ESTATES OPEN SPACE (OPEN SPACES)",
    "lat": 17.482821,
    "lng": 78.3420444
  },
  {
    "name": "VASANTHA ESTATES OPEN SPACE (OPEN SPACES)",
    "lat": 17.4819408,
    "lng": 78.3460797
  },
  {
    "name": "VASANTHA ESTATES OPEN SPACE (OPEN SPACES)",
    "lat": 17.4818976,
    "lng": 78.3334059
  },
  {
    "name": "VASANTHA ESTATES OPEN SPACE (OPEN SPACES)",
    "lat": 17.4832592,
    "lng": 78.3345685
  },
  {
    "name": "VASANTHA ESTATES OPEN SPACE (OPEN SPACES)",
    "lat": 17.4816709,
    "lng": 78.3351742
  },
  {
    "name": "VASANTHA ESTATES OPEN SPACE (OPEN SPACES)",
    "lat": 17.4812403,
    "lng": 78.3359638
  },
  {
    "name": "CAMLOT COLONY OPEN SPACE (OPEN SPACES)",
    "lat": 17.4657796,
    "lng": 78.3464255
  },
  {
    "name": "RAIL VIHAR OPEN SPACE (OPEN SPACES)",
    "lat": 17.4829856,
    "lng": 78.3125801
  },
  {
    "name": "HOUSING BOARD OPEN SPACE (PARKING) (OPEN SPACES)",
    "lat": 17.4493341,
    "lng": 78.3580097
  },
  {
    "name": "HOUSING BOARD OPEN SPACE (OPEN SPACES)",
    "lat": 17.4463875,
    "lng": 78.3606255
  },
  {
    "name": "J.V COLONY  OPEN SPACE (OPEN SPACES)",
    "lat": 17.4429939,
    "lng": 78.3601166
  },
  {
    "name": "NALLAGANDLA PARK (PARKS)",
    "lat": 17.4855803,
    "lng": 78.314032
  },
  {
    "name": "DUBEY COLONY PARK (PARKS)",
    "lat": 17.4799211,
    "lng": 78.3173893
  },
  {
    "name": "SUDERSHAN NAGAR PARK (PARKS)",
    "lat": 17.4714717,
    "lng": 78.3314743
  },
  {
    "name": "HOUSING BOARD-1 PARK (PARKS)",
    "lat": 17.4496858,
    "lng": 78.3562584
  },
  {
    "name": "HOUSING BOARD-7 PARK (PARKS)",
    "lat": 17.4455531,
    "lng": 78.3580604
  },
  {
    "name": "J.V COLONY-1 PARK (PARKS)",
    "lat": 17.4442906,
    "lng": 78.3602484
  },
  {
    "name": "J.V COLONY-2 PARK (PARKS)",
    "lat": 17.4451401,
    "lng": 78.3605951
  },
  {
    "name": "DOYENS COLONY PLAY GROUND (PLAY GROUNDS)",
    "lat": 17.4776793,
    "lng": 78.3252423
  },
  {
    "name": "RAIL VIHAR PLAY GROUND (PLAY GROUNDS)",
    "lat": 17.4833827,
    "lng": 78.3123221
  },
  {
    "name": "Gopinagar (DUMPER BINS)",
    "lat": 17.482887,
    "lng": 78.3238775
  },
  {
    "name": "Masidbanda (DUMPER BINS)",
    "lat": 17.4662415,
    "lng": 78.3449222
  },
  {
    "name": "Kendriya Vihar, Gachibowli (DUMPER BINS)",
    "lat": 17.4437957,
    "lng": 78.3584633
  },
  {
    "name": "Lingampally Market (DUMPER BINS)",
    "lat": 17.4913677,
    "lng": 78.3150498
  },
  {
    "name": "JANA VIKAS SHELTER FOR MENS (NIGHT SHELTERS)",
    "lat": 17.483382,
    "lng": 78.3205531
  },
  {
    "name": "PLOT NO.38&39 KAVURIHILLS MADHAPUR. (TOILETS)",
    "lat": 17.4399832,
    "lng": 78.3987323
  },
  {
    "name": "HNO.1-98/8/5 ASHOKA HOTEL JAIHINDSOCITEY MADHAPUR. (TOILETS)",
    "lat": 17.4507679,
    "lng": 78.3870354
  },
  {
    "name": "CYBERABADFILLING STATION SURVEY NO.41/14.KHANAMET HITECHCITY (TOILETS)",
    "lat": 17.4606888,
    "lng": 78.3854362
  },
  {
    "name": "PLOT NO.2 NEAR MIRRORS HAIR&BEAUTY SALONS ROHINI LAYOUT MADHAPUR (TOILETS)",
    "lat": 17.4461889,
    "lng": 78.3854205
  },
  {
    "name": "SIVAM AUTO HITEC CITY SURVEY NO.19 PLOT NO.143,144,145 HITECH CITY KHANAMET (TOILETS)",
    "lat": 17.4592378,
    "lng": 78.3851244
  },
  {
    "name": "INDIRAGANDHI STATUE LEFTSIDE OPP SHILPARAMAM HITECHCITY MADHAPUR. (TOILETS)",
    "lat": 17.4541586,
    "lng": 78.3791808
  },
  {
    "name": "NOVOTEL HOTELS& RESORTS NEAR HITECH CITY IZZATHNAGAR KHANAMET. (TOILETS)",
    "lat": 17.4732533,
    "lng": 78.3752505
  },
  {
    "name": "MATRUSRI NAGAR WELFARE ASSOCIATION (COMMUNITY HALLS)",
    "lat": 17.4952759,
    "lng": 78.3678917
  },
  {
    "name": "KAVURI HILLS WELFARE ASSOCIATION BUILDING (COMMUNITY HALLS)",
    "lat": 17.4393414,
    "lng": 78.396986
  },
  {
    "name": "ADITYA NAGAR COMMUNITY HALL (COMMUNITY HALLS)",
    "lat": 17.4788664,
    "lng": 78.3626904
  },
  {
    "name": "GOKUL PLOTS ASSOCIATION BUILDING (COMMUNITY HALLS)",
    "lat": 17.4862952,
    "lng": 78.3808916
  },
  {
    "name": "GUTTALA BEGUMPET COMMUNITY HALL (COMMUNITY HALLS)",
    "lat": 17.4409194,
    "lng": 78.3957037
  },
  {
    "name": "MADHAVA NAGAR WATER TANK (OPEN SPACES)",
    "lat": 17.4935896,
    "lng": 78.3601967
  },
  {
    "name": "GREEN HAMLET OPEN SPACE-3 (OPEN SPACES)",
    "lat": 17.4693683,
    "lng": 78.3689082
  },
  {
    "name": "KAVURI HILLS WATER WORKS OFFICE (OPEN SPACES)",
    "lat": 17.4391199,
    "lng": 78.3972255
  },
  {
    "name": "MATRUSRI NAGAR OPEN SPACE (OPEN SPACES)",
    "lat": 17.492544,
    "lng": 78.3648326
  },
  {
    "name": "AMBEDKAR NAGAR OPEN SPACE,MIYAPUR (OPEN SPACES)",
    "lat": 17.4919388,
    "lng": 78.3599966
  },
  {
    "name": "GREEN HAMLET OPEN SPACE-2 (OPEN SPACES)",
    "lat": 17.4687039,
    "lng": 78.3670976
  },
  {
    "name": "GREEN HAMLET OPEN SPACE-1 (OPEN SPACES)",
    "lat": 17.4700873,
    "lng": 78.3692337
  },
  {
    "name": "GREEN HAMLET OPEN SPACE (OPEN SPACES)",
    "lat": 17.4701557,
    "lng": 78.3681076
  },
  {
    "name": "GUTTALA  BEGUMPET OPEN SPACE (OPEN SPACES)",
    "lat": 17.4525663,
    "lng": 78.4004582
  },
  {
    "name": "JAIHIND ENCLAVE OPEN SPACE (OPEN SPACES)",
    "lat": 17.4510256,
    "lng": 78.3863485
  },
  {
    "name": "GREEN HAMLET CHILDRENS PARK (PARKS)",
    "lat": 17.4698096,
    "lng": 78.3676442
  },
  {
    "name": "KAVURI HILLS PARK (PARKS)",
    "lat": 17.4407311,
    "lng": 78.3990833
  },
  {
    "name": "KAVURI HILLS PARK (PARKS)",
    "lat": 17.4414701,
    "lng": 78.4000189
  },
  {
    "name": "APARNA COUNTY  PARK-III (PARKS)",
    "lat": 17.4896503,
    "lng": 78.362952
  },
  {
    "name": "APARNA COUNTY  PARK-II (PARKS)",
    "lat": 17.4881021,
    "lng": 78.3623133
  },
  {
    "name": "APARNA COUNTY  PARK-I (PARKS)",
    "lat": 17.4895727,
    "lng": 78.3644869
  },
  {
    "name": "MATRUSRI NAGAR PARK (PARKS)",
    "lat": 17.4920363,
    "lng": 78.3668264
  },
  {
    "name": "MATRUSRI NAGAR PARK (PARKS)",
    "lat": 17.4919114,
    "lng": 78.368895
  },
  {
    "name": "MATRUSRI NAGAR   CHILDRENS PARK (PARKS)",
    "lat": 17.4954216,
    "lng": 78.3628654
  },
  {
    "name": "MATRUSRI NAGAR  WELFARE ASSOCIATION PARK (PARKS)",
    "lat": 17.4925444,
    "lng": 78.3707316
  },
  {
    "name": "GREEN HAMLET PARK (PARKS)",
    "lat": 17.4711449,
    "lng": 78.3684122
  },
  {
    "name": "APARNA ORCHIDS PARK-III (PARKS)",
    "lat": 17.4679795,
    "lng": 78.3740953
  },
  {
    "name": "APARNA ORCHIDS PARK-II (PARKS)",
    "lat": 17.4682033,
    "lng": 78.374237
  },
  {
    "name": "APARNA ORCHIDS  PARK-I (PARKS)",
    "lat": 17.4685853,
    "lng": 78.3725271
  },
  {
    "name": "ARUNODAYA COLONY WELFARE ASSO. AND CHILDRENS PARK (PARKS)",
    "lat": 17.4451701,
    "lng": 78.3874214
  },
  {
    "name": "ARUNODAYA  COLONY CHILDRENS PARK-II (PARKS)",
    "lat": 17.4459523,
    "lng": 78.3867706
  },
  {
    "name": "SRI SAI NAGAR PARK (PARKS)",
    "lat": 17.4463988,
    "lng": 78.3853413
  },
  {
    "name": "JAI HIND ENCLAVE PARK (PARKS)",
    "lat": 17.4514266,
    "lng": 78.3859874
  },
  {
    "name": "AYAPPA SOCIETY PARK (PARKS)",
    "lat": 17.4470902,
    "lng": 78.3932749
  },
  {
    "name": "JAI HIND COLONY PARK (PARKS)",
    "lat": 17.4490643,
    "lng": 78.386468
  },
  {
    "name": "JAI HIND  COLONY PARK (PARKS)",
    "lat": 17.4858746,
    "lng": 78.3794177
  },
  {
    "name": "MATRUSRI NAGAR PLAY GROUND (PLAY GROUNDS)",
    "lat": 17.493989,
    "lng": 78.3671513
  },
  {
    "name": "VINAYAK NAGAR PLAY GROUND (PLAY GROUNDS)",
    "lat": 17.4842027,
    "lng": 78.3797936
  },
  {
    "name": "MATRUSRI NAGAR PLAY GROUND (PLAY GROUNDS)",
    "lat": 17.4940722,
    "lng": 78.3631181
  },
  {
    "name": "GREEN HAMLET PLAY GROUND (PLAY GROUNDS)",
    "lat": 17.4712169,
    "lng": 78.3674598
  },
  {
    "name": "KAVURI HILLS PLAY GROUND (PLAY GROUNDS)",
    "lat": 17.4395185,
    "lng": 78.3992247
  },
  {
    "name": "MATRUSRI NAGAR  PLAY GROUND (PLAY GROUNDS)",
    "lat": 17.4954612,
    "lng": 78.3642739
  },
  {
    "name": "IX PHASE GOKUL PLATS (DUMPER BINS)",
    "lat": 17.4886953,
    "lng": 78.3824497
  },
  {
    "name": "IX PHASE GOKUL PLATS (DUMPER BINS)",
    "lat": 17.4887317,
    "lng": 78.3823733
  },
  {
    "name": "Aditya nagar near Railway Track (DUMPER BINS)",
    "lat": 17.4821758,
    "lng": 78.3618658
  },
  {
    "name": "Subhash chandrabose nagar (DUMPER BINS)",
    "lat": 17.4769552,
    "lng": 78.3656303
  },
  {
    "name": "Izzath nagar weaker section (DUMPER BINS)",
    "lat": 17.465611,
    "lng": 78.3792668
  },
  {
    "name": "Chandranaik Tanda (DUMPER BINS)",
    "lat": 17.4540512,
    "lng": 78.3881462
  },
  {
    "name": "Gokul Plots (Every 3 days) (DUMPER BINS)",
    "lat": 17.4810093,
    "lng": 78.379578
  },
  {
    "name": "Mega Hills, Borabanda 100'feet Road (DUMPER BINS)",
    "lat": 17.445766,
    "lng": 78.394397
  },
  {
    "name": "Mega Hills, Borabanda 100'feet Road (DUMPER BINS)",
    "lat": 17.4456838,
    "lng": 78.3943287
  },
  {
    "name": "Mega Hills, Borabanda 100'feet Road (DUMPER BINS)",
    "lat": 17.4456817,
    "lng": 78.3943733
  },
  {
    "name": "Kondapur Junction (DUMPER BINS)",
    "lat": 17.4656097,
    "lng": 78.3793025
  },
  {
    "name": "Hafeezpet Railway Station (DUMPER BINS)",
    "lat": 17.4833593,
    "lng": 78.3638635
  },
  {
    "name": "MIYAPUR X ROAD (TOILETS)",
    "lat": 17.4971412,
    "lng": 78.3618339
  },
  {
    "name": "BESIDE ANGARA HOTEL MIYAPUR (TOILETS)",
    "lat": 17.4968968,
    "lng": 78.3606049
  },
  {
    "name": "BESIDE SRI KRISHNA GRAND MIYAPUR (TOILETS)",
    "lat": 17.4968949,
    "lng": 78.3604872
  },
  {
    "name": "BESIDE CINETOWN MIYAPUR (TOILETS)",
    "lat": 17.494887,
    "lng": 78.3533469
  },
  {
    "name": "PATANCHERUVU NEAR SADHVIKA HOTEL MIYAPUR (TOILETS)",
    "lat": 17.4946236,
    "lng": 78.352419
  },
  {
    "name": "BESIDE  SRANKRANTHI HOTEL MIYAPUR X ROAD (TOILETS)",
    "lat": 17.497209,
    "lng": 78.3624835
  },
  {
    "name": "PRASHANTH NAGAR WELFARE ASSOCIATION (COMMUNITY HALLS)",
    "lat": 17.5041986,
    "lng": 78.3511103
  },
  {
    "name": "MAYURINAGAR WELFARE ASSOCIATION (COMMUNITY HALLS)",
    "lat": 17.5113488,
    "lng": 78.3684853
  },
  {
    "name": "SAIRAM NAGAR WELFARE ASSICIATION (COMMUNITY HALLS)",
    "lat": 17.5059594,
    "lng": 78.3548618
  },
  {
    "name": "MIYAPUR COMMUNITY HALL (COMMUNITY HALLS)",
    "lat": 17.4980978,
    "lng": 78.3573263
  },
  {
    "name": "JP NAGAR COMMUNITY HALL (COMMUNITY HALLS)",
    "lat": 17.5066241,
    "lng": 78.3564915
  },
  {
    "name": "DR REDDY ENCLAVE COMMUNITY HALL (COMMUNITY HALLS)",
    "lat": 17.5197734,
    "lng": 78.3515654
  },
  {
    "name": "BK ENCLAVE COMMUNITY HALL (COMMUNITY HALLS)",
    "lat": 17.5173418,
    "lng": 78.3533925
  },
  {
    "name": "PRAGATHI ENCLAVE COMMUNITY HALL (COMMUNITY HALLS)",
    "lat": 17.4989304,
    "lng": 78.3564745
  },
  {
    "name": "SMILE ENCLAVE,COMMUNITY HALL (COMMUNITY HALLS)",
    "lat": 17.5168033,
    "lng": 78.3485081
  },
  {
    "name": "JANAPRIYA WEST CITY 1,COMMUNITY HALL. (COMMUNITY HALLS)",
    "lat": 17.5123169,
    "lng": 78.3538231
  },
  {
    "name": "PRASHANTH NAGAR WELFARE ASSOCIATION (COMMUNITY HALLS)",
    "lat": 17.5042007,
    "lng": 78.3511032
  },
  {
    "name": "OPEN SPACE 6,MAYURI NAGAR (OPEN SPACES)",
    "lat": 17.5117132,
    "lng": 78.3733365
  },
  {
    "name": "OPEN SPACE,BK ENCLAVE (OPEN SPACES)",
    "lat": 17.5180744,
    "lng": 78.353065
  },
  {
    "name": "OPEN SPACE 3,BK ENCLAVE (OPEN SPACES)",
    "lat": 17.5172965,
    "lng": 78.354309
  },
  {
    "name": "OPEN SPACE,MAYURI NAGAR (OPEN SPACES)",
    "lat": 17.5127303,
    "lng": 78.3726821
  },
  {
    "name": "OPEN SPACE,MAYURI NAGAR,WATER TANK, (OPEN SPACES)",
    "lat": 17.5111889,
    "lng": 78.371933
  },
  {
    "name": "OPEN SPACE,MAYURI NAGAR (OPEN SPACES)",
    "lat": 17.5116558,
    "lng": 78.366152
  },
  {
    "name": "OPEN SPACE  JPN NAGAR (OPEN SPACES)",
    "lat": 17.5084761,
    "lng": 78.35569
  },
  {
    "name": "OPEN SPACE 5,JPN NAGAR (OPEN SPACES)",
    "lat": 17.5077465,
    "lng": 78.3559502
  },
  {
    "name": "OPEN SPACE 1,JPN NAGAR (OPEN SPACES)",
    "lat": 17.5045974,
    "lng": 78.3649648
  },
  {
    "name": "OPEN SPACE 5,MAYURI NAGAR (OPEN SPACES)",
    "lat": 17.5117892,
    "lng": 78.3680986
  },
  {
    "name": "OPEN SPACE 4,MAYURI NAGAR (OPEN SPACES)",
    "lat": 17.5116461,
    "lng": 78.3667888
  },
  {
    "name": "OPEN SPACE  HMT SWARNAPURI 5 (OPEN SPACES)",
    "lat": 17.5189259,
    "lng": 78.3452404
  },
  {
    "name": "OPEN SPACE 2,PRASANTH NAGAR (OPEN SPACES)",
    "lat": 17.503171,
    "lng": 78.3549129
  },
  {
    "name": "OPEN SPACE 1,PRASANTH NAGAR (OPEN SPACES)",
    "lat": 17.5036536,
    "lng": 78.3533673
  },
  {
    "name": "OPEN SPACE,KVR TOWERS (OPEN SPACES)",
    "lat": 17.4959524,
    "lng": 78.3547513
  },
  {
    "name": "OPEN SPACE,FCI COLONY (OPEN SPACES)",
    "lat": 17.4996059,
    "lng": 78.3527474
  },
  {
    "name": "OPEN SPACE,FCI COLONY (OPEN SPACES)",
    "lat": 17.4978811,
    "lng": 78.3532238
  },
  {
    "name": "OPEN SPACE,CHIRANJEEVI NAGAR (OPEN SPACES)",
    "lat": 17.4979213,
    "lng": 78.3546737
  },
  {
    "name": "OPEN SPACE,PRAGATHI NAGAR ENCLAVE 3 (OPEN SPACES)",
    "lat": 17.4993161,
    "lng": 78.3545617
  },
  {
    "name": "OPEN SPACE 5,BK ENCLAVE (OPEN SPACES)",
    "lat": 17.5042544,
    "lng": 78.3557522
  },
  {
    "name": "OPEN SPACE 4,BK ENCLAVE (OPEN SPACES)",
    "lat": 17.5051832,
    "lng": 78.3551825
  },
  {
    "name": "OPEN SPACE 3,BK ENCLAVE (OPEN SPACES)",
    "lat": 17.5046615,
    "lng": 78.3548409
  },
  {
    "name": "OPEN SPACE 2,BK ENCLAVE (OPEN SPACES)",
    "lat": 17.504468,
    "lng": 78.3540682
  },
  {
    "name": "OPEN SPACE 7,BK ENCLAVE (OPEN SPACES)",
    "lat": 17.5162803,
    "lng": 78.3565532
  },
  {
    "name": "OPEN SPACE 6,BK ENCLAVE (OPEN SPACES)",
    "lat": 17.5154415,
    "lng": 78.3563424
  },
  {
    "name": "OPEN SPACE 5,BK ENCLAVE (OPEN SPACES)",
    "lat": 17.5157913,
    "lng": 78.3552168
  },
  {
    "name": "OPEN SPACE ,DR. REDDY'S ENCLAVE 2 (OPEN SPACES)",
    "lat": 17.5197661,
    "lng": 78.3533902
  },
  {
    "name": "OPEN SPACE,HMT SWARNAPURI 11 (OPEN SPACES)",
    "lat": 17.5182494,
    "lng": 78.3448986
  },
  {
    "name": "OPEN SPACE,KRISHNA SAI ENCLAVE 2 (OPEN SPACES)",
    "lat": 17.5129852,
    "lng": 78.3513856
  },
  {
    "name": "OPEN SPACE,KRISHNA SAI ENCLAVE 1 (OPEN SPACES)",
    "lat": 17.5132045,
    "lng": 78.3509203
  },
  {
    "name": "OPEN SPACE,JANAPRIYA WEST CITY 5 (OPEN SPACES)",
    "lat": 17.5137199,
    "lng": 78.3520159
  },
  {
    "name": "OPEN SPACE,JANAPRIYA WEST CITY 2 (OPEN SPACES)",
    "lat": 17.5118498,
    "lng": 78.3535726
  },
  {
    "name": "OPEN SPACE 7,JPN NAGAR (OPEN SPACES)",
    "lat": 17.506544,
    "lng": 78.355882
  },
  {
    "name": "OPEN SPACE 3,JPN NAGAR (OPEN SPACES)",
    "lat": 17.5070775,
    "lng": 78.3582489
  },
  {
    "name": "OPEN SPACE 1,DYNAMIC COLONY (OPEN SPACES)",
    "lat": 17.5085067,
    "lng": 78.3655179
  },
  {
    "name": "OPEN SPACE 3,MAYURI NAGAR (OPEN SPACES)",
    "lat": 17.511014,
    "lng": 78.3645752
  },
  {
    "name": "OPEN SPACE 2,BK ENCLAVE TEMPLE (OPEN SPACES)",
    "lat": 17.5182313,
    "lng": 78.35363
  },
  {
    "name": "OPEN SPACE,PRAJAY SHELTER (OPEN SPACES)",
    "lat": 17.5186635,
    "lng": 78.3521687
  },
  {
    "name": "OPEN SPACE 4,PRASANTH NAGAR (OPEN SPACES)",
    "lat": 17.5058977,
    "lng": 78.3528311
  },
  {
    "name": "OPEN SPACE 3,PRASANTH NAGAR (OPEN SPACES)",
    "lat": 17.504355,
    "lng": 78.35136
  },
  {
    "name": "NURSERY,MAYURI NAGAR OPEN SPACE (PARKS)",
    "lat": 17.5127759,
    "lng": 78.3628725
  },
  {
    "name": "HMT SWARNAPURI NURSERY (PARKS)",
    "lat": 17.5169792,
    "lng": 78.3479542
  },
  {
    "name": "SRILA PARK (PARKS)",
    "lat": 17.5055796,
    "lng": 78.3651024
  },
  {
    "name": "MAYURI NAGAR PARK (PARKS)",
    "lat": 17.5110848,
    "lng": 78.3634269
  },
  {
    "name": "HMT SWARNAPURI PARK (PARKS)",
    "lat": 17.5167251,
    "lng": 78.3469015
  },
  {
    "name": "LAKEVIEW ENCLAVE PARK (PARKS)",
    "lat": 17.4993345,
    "lng": 78.3590282
  },
  {
    "name": "PRAGATHI NAGAR ENCLAVE PARK-IV (PARKS)",
    "lat": 17.4981115,
    "lng": 78.3561556
  },
  {
    "name": "PRAGATHI NAGAR ENCLAVE 2,PARK (PARKS)",
    "lat": 17.4991019,
    "lng": 78.3570053
  },
  {
    "name": "ALLURI SITA RAMA RAJU NAGAR PARK-II (PARKS)",
    "lat": 17.5040947,
    "lng": 78.3581791
  },
  {
    "name": "ALLURI SITA RAMA RAJU NAGAR PARK-I (PARKS)",
    "lat": 17.5045041,
    "lng": 78.3570332
  },
  {
    "name": "BK ENCLAVE PARK (PARKS)",
    "lat": 17.5160759,
    "lng": 78.3534606
  },
  {
    "name": "JPN NAGAR PARK-4 (PARKS)",
    "lat": 17.5081873,
    "lng": 78.3584753
  },
  {
    "name": "JPN NAGAR PARK (PARKS)",
    "lat": 17.5058141,
    "lng": 78.3579285
  },
  {
    "name": "DYNAMIC COLONY PARK (PARKS)",
    "lat": 17.5087203,
    "lng": 78.3664676
  },
  {
    "name": "SAIRAM NAGAR PLAYGROUND (PLAY GROUNDS)",
    "lat": 17.5059473,
    "lng": 78.3548591
  },
  {
    "name": "JANAPRIYA WEST CITY,PLAYGROUND (PLAY GROUNDS)",
    "lat": 17.5129219,
    "lng": 78.3530614
  },
  {
    "name": "DR. REDDY'S ENCLAVE PLAYGROUND (PLAY GROUNDS)",
    "lat": 17.520292,
    "lng": 78.3520663
  },
  {
    "name": "Allwyn Junction, Miyapur (DUMPER BINS)",
    "lat": 17.4942282,
    "lng": 78.3498948
  },
  {
    "name": "Allwyn Junction, Miyapur (DUMPER BINS)",
    "lat": 17.4944192,
    "lng": 78.3498593
  },
  {
    "name": "Allwyn Junction, Miyapur (DUMPER BINS)",
    "lat": 17.494289,
    "lng": 78.349847
  },
  {
    "name": "Miyapur Market opp,Kalyan Gardan (DUMPER BINS)",
    "lat": 17.49698,
    "lng": 78.3650352
  },
  {
    "name": "Miyapur Market opp,Kalyan Gardan (DUMPER BINS)",
    "lat": 17.4970105,
    "lng": 78.3650632
  },
  {
    "name": "Miyapur Market opp,Kalyan Gardan (DUMPER BINS)",
    "lat": 17.4969772,
    "lng": 78.365196
  },
  {
    "name": "HI TECH FILLING STATION HAFEEZPET (TOILETS)",
    "lat": 17.4858291,
    "lng": 78.3578818
  },
  {
    "name": "NEAR SATHYABHARATHI FUNCTION HALL INDRAREDDYALLWIN COLONY, MIYAPUR (TOILETS)",
    "lat": 17.492401,
    "lng": 78.3529211
  },
  {
    "name": "OPP:CINITOWEN, ONUS PETRO SERVICES, MIYAPUR (TOILETS)",
    "lat": 17.4938554,
    "lng": 78.3526248
  },
  {
    "name": "PRADEEP AGENCY MADINAGUDA (TOILETS)",
    "lat": 17.4934966,
    "lng": 78.3490748
  },
  {
    "name": "REPEAT ENTRY THE GRAND COOK MYTHRINAGAR PHASE-2 (TOILETS)",
    "lat": 17.4937964,
    "lng": 78.3478564
  },
  {
    "name": "NEAR GOVERNMENT SCHOOL, MADEENAGUDA (TOILETS)",
    "lat": 17.4946598,
    "lng": 78.3448887
  },
  {
    "name": "SRI VENKATESHWARA FILLING STATION MADEENAGUDA (TOILETS)",
    "lat": 17.4945779,
    "lng": 78.3414641
  },
  {
    "name": "REPEAT ENTRY YASHODHA PERAL'S MADINAGUDA (TOILETS)",
    "lat": 17.4946668,
    "lng": 78.3406911
  },
  {
    "name": "REPEAT ENTRY HOTEL SWAGATH GRAND MADINAGUDA (TOILETS)",
    "lat": 17.4947103,
    "lng": 78.3398905
  },
  {
    "name": "REPEAT ENTRY CYBER FILLING STATION LAND MARK MADINAGUDA (TOILETS)",
    "lat": 17.4947821,
    "lng": 78.336492
  },
  {
    "name": "OLD MANJEERA WOTERWORKS OFFICE PJR,STADIUM ROAD CHNDANAGAR (TOILETS)",
    "lat": 17.4938611,
    "lng": 78.3250895
  },
  {
    "name": "JANAPRIYA NAGAR PHASE 1 COMMUNITY HALL (COMMUNITY HALLS)",
    "lat": 17.4907879,
    "lng": 78.3595196
  },
  {
    "name": "JANAPRIYA NAGAR RESIDENTS WELFARE ASSOCIATION (COMMUNITY HALLS)",
    "lat": 17.4911544,
    "lng": 78.3596115
  },
  {
    "name": "JANAPRIYA NAGAR II PHASE COMMUNITY HALL (COMMUNITY HALLS)",
    "lat": 17.4918926,
    "lng": 78.3581718
  },
  {
    "name": "VINAYAKA NAGAR RESIDENTS WELFARE ASSOCIATION COMMUNITY HALL (COMMUNITY HALLS)",
    "lat": 17.4859446,
    "lng": 78.3560252
  },
  {
    "name": "MADINAGUDA COMMUNITY HALL (COMMUNITY HALLS)",
    "lat": 17.4919274,
    "lng": 78.3455897
  },
  {
    "name": "VAISHALI NAGAR OWNERS WELFARE ASSOCIATION (COMMUNITY HALLS)",
    "lat": 17.4839276,
    "lng": 78.3464437
  },
  {
    "name": "GANGARAM COMMUNITY HALL (COMMUNITY HALLS)",
    "lat": 17.4945128,
    "lng": 78.3297457
  },
  {
    "name": "ENGINEERS ENCLAVE HUDACOLONY COMMUNITY HALL (COMMUNITY HALLS)",
    "lat": 17.4937674,
    "lng": 78.3321858
  },
  {
    "name": "HUDACOLONY CHANDANAGAR COMMUNITY HALL (COMMUNITY HALLS)",
    "lat": 17.489258,
    "lng": 78.3334814
  },
  {
    "name": "HUDACOLONY II CHANDANAGAR COMMUNITY HALL (COMMUNITY HALLS)",
    "lat": 17.4880308,
    "lng": 78.3316929
  },
  {
    "name": "CHANDANAGAR COMMUNITYHALL (COMMUNITY HALLS)",
    "lat": 17.4938265,
    "lng": 78.3252601
  },
  {
    "name": "OLD HAFEEZPET YOUTHCOLONY COMMUNITY HALL & HANUMAN TEMPLE (COMMUNITY HALLS)",
    "lat": 17.4867478,
    "lng": 78.3584314
  },
  {
    "name": "MANDAL PARISHAD SCHOOL,SHANTHINAGAR, CHANDANAGAR (OPEN SPACES)",
    "lat": 17.4912005,
    "lng": 78.3250522
  },
  {
    "name": "MADINAGUDA MPTC GOVT SCHOOL (OPEN SPACES)",
    "lat": 17.4944636,
    "lng": 78.3448385
  },
  {
    "name": "RTC COLONY TEMPLE (OPEN SPACES)",
    "lat": 17.490262,
    "lng": 78.3371425
  },
  {
    "name": "ENGINEER ENCLAVE  OPEN SPACE (OPEN SPACES)",
    "lat": 17.4921391,
    "lng": 78.3321155
  },
  {
    "name": "HUDA COLONY, ELLAMMA TEMPLE (OPEN SPACES)",
    "lat": 17.4933128,
    "lng": 78.3295731
  },
  {
    "name": "HUDA COLONY,MAHANKALIPOCHAMMA TEMPLE (OPEN SPACES)",
    "lat": 17.4930815,
    "lng": 78.3281298
  },
  {
    "name": "HUDA COLONY OLD WATER TANK (OPEN SPACES)",
    "lat": 17.4909704,
    "lng": 78.3335472
  },
  {
    "name": "HUDA COLONY  CHANDANAGAR MODEL MARKET (OPEN SPACES)",
    "lat": 17.4877381,
    "lng": 78.3317631
  },
  {
    "name": "HUDA COLONY OPEN PLACAE (OPEN SPACES)",
    "lat": 17.4884094,
    "lng": 78.333864
  },
  {
    "name": "HUDA COLONY HANUMAN TEMPLE (OPEN SPACES)",
    "lat": 17.4888398,
    "lng": 78.3336108
  },
  {
    "name": "HUDA COLONY OPEN SPACE (OPEN SPACES)",
    "lat": 17.4895326,
    "lng": 78.3333355
  },
  {
    "name": "HUDA KANAKADURGA TEMPLE (OPEN SPACES)",
    "lat": 17.4901576,
    "lng": 78.3343048
  },
  {
    "name": "HUDA COLONY GRAVAE YARD (OPEN SPACES)",
    "lat": 17.4919473,
    "lng": 78.3304882
  },
  {
    "name": "HUDA COLONY WATER TANK (OPEN SPACES)",
    "lat": 17.489637,
    "lng": 78.3306323
  },
  {
    "name": "HUDA COLONY  SHIVALAYAM TEMPLE (OPEN SPACES)",
    "lat": 17.4882115,
    "lng": 78.3305803
  },
  {
    "name": "HUDA COLONY VINAYAKA TEMPLE (OPEN SPACES)",
    "lat": 17.4903701,
    "lng": 78.3299118
  },
  {
    "name": "HUDA COLONY OPEN SPACE (OPEN SPACES)",
    "lat": 17.4888137,
    "lng": 78.3283133
  },
  {
    "name": "SHARADA NAGAR OPEN SPACE (OPEN SPACES)",
    "lat": 17.4841266,
    "lng": 78.3538045
  },
  {
    "name": "AP GOVT GAZETTED OFFICERS COLONY OPEN SPACE (OPEN SPACES)",
    "lat": 17.4830716,
    "lng": 78.3516511
  },
  {
    "name": "AP GOVT GAZETTED OFFICERS COLONY OPEN SPACE (OPEN SPACES)",
    "lat": 17.4856142,
    "lng": 78.3500075
  },
  {
    "name": "AP GOVT GAZETTED OFFICERS COLONY OPEN SPACE (OPEN SPACES)",
    "lat": 17.4840604,
    "lng": 78.3506089
  },
  {
    "name": "AP GOVT GAZETTED OFFICERS COLONY OPEN SPACE (OPEN SPACES)",
    "lat": 17.4847041,
    "lng": 78.3513203
  },
  {
    "name": "USHODAYA ENCLAVE OPEN SPACE (OPEN SPACES)",
    "lat": 17.4841508,
    "lng": 78.346012
  },
  {
    "name": "USHODAYA ENCLAVE  OPEN SPACE (OPEN SPACES)",
    "lat": 17.4841328,
    "lng": 78.3459824
  },
  {
    "name": "HUDA COLONY OPEN SPACE (OPEN SPACES)",
    "lat": 17.492456,
    "lng": 78.3299644
  },
  {
    "name": "JANAPRIYA APARTMENT SAI BABA TEMPLE (OPEN SPACES)",
    "lat": 17.4938509,
    "lng": 78.3562747
  },
  {
    "name": "USHODAYA ENCLAVE  OPEN SPACE (OPEN SPACES)",
    "lat": 17.4876305,
    "lng": 78.3476312
  },
  {
    "name": "ALLWYN COLONY KANAKADURGA TEMPLE (OPEN SPACES)",
    "lat": 17.4919188,
    "lng": 78.3527069
  },
  {
    "name": "HAFEEZPET GOVT SCHOOL (OPEN SPACES)",
    "lat": 17.4870424,
    "lng": 78.3563175
  },
  {
    "name": "HAFIZPET WATER TANK (OPEN SPACES)",
    "lat": 17.4880595,
    "lng": 78.3527508
  },
  {
    "name": "SIVALAYAM, ALLWYN COLONY, SAI BABA TEMPLE (OPEN SPACES)",
    "lat": 17.4903076,
    "lng": 78.3521
  },